946684881.735168$GPRMC,015602.00,A,3957.16350,N,07511.46061,W,0.018,,141212,,,A*60
946684881.735504$GPRMC,015602.00,A,3957.16350,N,07511.46061,W,0.018,,141212,,,A*60
946684881.735656$GPRMC,015602.00,A,3957.16350,N,07511.46061,W,0.018,,141212,,,A*60
946684881.735931$GPRMC,015602.00,A,3957.16350,N,07511.46061,W,0.018,,141212,,,A*60
946684881.736114$GPRMC,015602.00,A,3957.16350,N,07511.46061,W,0.018,,141212,,,A*60
946684881.736267$GPRMC,015602.00,A,3957.16350,N,07511.46061,W,0.018,,141212,,,A*60
946684881.736389$GPRMC,015602.00,A,3957.16350,N,07511.46061,W,0.018,,141212,,,A*60
946684881.736541$GPRMC,015602.00,A,3957.16350,N,07511.46061,W,0.018,,141212,,,A*60
946684881.736694$GPRMC,015602.00,A,3957.16350,N,07511.46061,W,0.018,,141212,,,A*60
946684882.146606$GPGSA,A,3,32,01,22,25,12,14,,,,,,,2.94,1.35,2.61*0E
946684882.146820$GPGSA,A,3,32,01,22,25,12,14,,,,,,,2.94,1.35,2.61*0E
946684882.146972$GPGSA,A,3,32,01,22,25,12,14,,,,,,,2.94,1.35,2.61*0E
946684882.147125$GPGSA,A,3,32,01,22,25,12,14,,,,,,,2.94,1.35,2.61*0E
946684882.147277$GPGSA,A,3,32,01,22,25,12,14,,,,,,,2.94,1.35,2.61*0E
946684882.147521$GPGSA,A,3,32,01,22,25,12,14,,,,,,,2.94,1.35,2.61*0E
946684882.157653$GPGLL,3957.16349,N,07511.46063,W,015602.40,A,A*7B
946684882.157836$GPGLL,3957.16349,N,07511.46063,W,015602.40,A,A*7B
946684882.157989$GPGLL,3957.16349,N,07511.46063,W,015602.40,A,A*7B
946684882.158142$GPGLL,3957.16349,N,07511.46063,W,015602.40,A,A*7B
946684882.158294$GPGLL,3957.16349,N,07511.46063,W,015602.40,A,A*7B
946684882.158538$GPGLL,3957.16349,N,07511.46063,W,015602.40,A,A*7B
946684882.158691$GPGLL,3957.16349,N,07511.46063,W,015602.40,A,A*7B
946684882.158813$GPGLL,3957.16349,N,07511.46063,W,015602.40,A,A*7B
946684882.158966$GPGLL,3957.16349,N,07511.46063,W,015602.40,A,A*7B
946684882.159118$GPGLL,3957.16349,N,07511.46063,W,015602.40,A,A*7B
946684882.159240$GPGLL,3957.16349,N,07511.46063,W,015602.40,A,A*7B
946684882.159484$GPGLL,3957.16349,N,07511.46063,W,015602.40,A,A*7B
946684882.159637$GPGLL,3957.16349,N,07511.46063,W,015602.40,A,A*7B
946684882.159790$GPGLL,3957.16349,N,07511.46063,W,015602.40,A,A*7B
946684882.349700$GPGLL,3957.16350,N,07511.46064,W,015602.60,A,A*76
946684882.349884$GPGLL,3957.16350,N,07511.46064,W,015602.60,A,A*76
946684882.350036$GPGLL,3957.16350,N,07511.46064,W,015602.60,A,A*76
946684882.350158$GPGLL,3957.16350,N,07511.46064,W,015602.60,A,A*76
946684882.350311$GPGLL,3957.16350,N,07511.46064,W,015602.60,A,A*76
946684882.350433$GPGLL,3957.16350,N,07511.46064,W,015602.60,A,A*76
946684882.350677$GPGLL,3957.16350,N,07511.46064,W,015602.60,A,A*76
946684882.350830$GPGLL,3957.16350,N,07511.46064,W,015602.60,A,A*76
946684882.350982$GPGLL,3957.16350,N,07511.46064,W,015602.60,A,A*76
946684882.351135$GPGLL,3957.16350,N,07511.46064,W,015602.60,A,A*76
946684882.351257$GPGLL,3957.16350,N,07511.46064,W,015602.60,A,A*76
946684882.351409$GPGLL,3957.16350,N,07511.46064,W,015602.60,A,A*76
946684882.351562$GPGLL,3957.16350,N,07511.46064,W,015602.60,A,A*76
946684882.351776$GPGLL,3957.16350,N,07511.46064,W,015602.60,A,A*76
946684882.351928$GPGLL,3957.16350,N,07511.46064,W,015602.60,A,A*76
946684882.535675$GPVTG,,T,,M,0.056,N,0.104,K,A*25
946684882.535949$GPVTG,,T,,M,0.056,N,0.104,K,A*25
946684882.536102$GPVTG,,T,,M,0.056,N,0.104,K,A*25
946684882.536224$GPVTG,,T,,M,0.056,N,0.104,K,A*25
946684882.536376$GPVTG,,T,,M,0.056,N,0.104,K,A*25
946684882.536499$GPVTG,,T,,M,0.056,N,0.104,K,A*25
946684882.536621$GPVTG,,T,,M,0.056,N,0.104,K,A*25
946684882.536773$GPVTG,,T,,M,0.056,N,0.104,K,A*25
946684882.537017$GPVTG,,T,,M,0.056,N,0.104,K,A*25
946684882.537139$GPVTG,,T,,M,0.056,N,0.104,K,A*25
946684882.537292$GPVTG,,T,,M,0.056,N,0.104,K,A*25
946684882.537414$GPVTG,,T,,M,0.056,N,0.104,K,A*25
946684882.537536$GPVTG,,T,,M,0.056,N,0.104,K,A*25
946684882.537689$GPVTG,,T,,M,0.056,N,0.104,K,A*25
946684882.537902$GPVTG,,T,,M,0.056,N,0.104,K,A*25
946684882.540649$GPGSA,A,3,32,01,22,25,12,14,,,,,,,2.94,1.35,2.61*0E
946684882.540924$GPGSA,A,3,32,01,22,25,12,14,,,,,,,2.94,1.35,2.61*0E
946684882.541076$GPGSA,A,3,32,01,22,25,12,14,,,,,,,2.94,1.35,2.61*0E
946684882.541229$GPGSA,A,3,32,01,22,25,12,14,,,,,,,2.94,1.35,2.61*0E
946684882.541473$GPGSA,A,3,32,01,22,25,12,14,,,,,,,2.94,1.35,2.61*0E
946684882.541625$GPGSA,A,3,32,01,22,25,12,14,,,,,,,2.94,1.35,2.61*0E
946684882.541778$GPGSA,A,3,32,01,22,25,12,14,,,,,,,2.94,1.35,2.61*0E
946684882.542053$GPGSA,A,3,32,01,22,25,12,14,,,,,,,2.94,1.35,2.61*0E
946684882.542205$GPGSA,A,3,32,01,22,25,12,14,,,,,,,2.94,1.35,2.61*0E
946684882.542327$GPGSA,A,3,32,01,22,25,12,14,,,,,,,2.94,1.35,2.61*0E
946684882.735412$GPVTG,,T,,M,0.100,N,0.185,K,A*2E
946684882.735595$GPVTG,,T,,M,0.100,N,0.185,K,A*2E
946684882.735717$GPVTG,,T,,M,0.100,N,0.185,K,A*2E
946684882.735870$GPVTG,,T,,M,0.100,N,0.185,K,A*2E
946684882.735992$GPVTG,,T,,M,0.100,N,0.185,K,A*2E
946684882.736236$GPVTG,,T,,M,0.100,N,0.185,K,A*2E
946684882.736389$GPVTG,,T,,M,0.100,N,0.185,K,A*2E
946684882.736511$GPVTG,,T,,M,0.100,N,0.185,K,A*2E
946684882.736663$GPVTG,,T,,M,0.100,N,0.185,K,A*2E
946684882.736785$GPVTG,,T,,M,0.100,N,0.185,K,A*2E
946684882.736938$GPVTG,,T,,M,0.100,N,0.185,K,A*2E
946684882.737060$GPVTG,,T,,M,0.100,N,0.185,K,A*2E
946684882.737304$GPVTG,,T,,M,0.100,N,0.185,K,A*2E
946684882.737457$GPVTG,,T,,M,0.100,N,0.185,K,A*2E
946684882.737579$GPVTG,,T,,M,0.100,N,0.185,K,A*2E
946684882.737701$GPVTG,,T,,M,0.100,N,0.185,K,A*2E
946684882.737854$GPVTG,,T,,M,0.100,N,0.185,K,A*2E
946684882.737976$GPVTG,,T,,M,0.100,N,0.185,K,A*2E
946684882.738189$GPVTG,,T,,M,0.100,N,0.185,K,A*2E
946684882.738342$GPVTG,,T,,M,0.100,N,0.185,K,A*2E
946684882.738494$GPVTG,,T,,M,0.100,N,0.185,K,A*2E
946684882.949798$GPVTG,,T,,M,0.081,N,0.151,K,A*2F
946684882.949951$GPVTG,,T,,M,0.081,N,0.151,K,A*2F
946684882.950103$GPVTG,,T,,M,0.081,N,0.151,K,A*2F
946684882.950225$GPVTG,,T,,M,0.081,N,0.151,K,A*2F
946684882.950378$GPVTG,,T,,M,0.081,N,0.151,K,A*2F
946684882.950622$GPVTG,,T,,M,0.081,N,0.151,K,A*2F
946684882.950744$GPVTG,,T,,M,0.081,N,0.151,K,A*2F
946684882.950897$GPVTG,,T,,M,0.081,N,0.151,K,A*2F
946684882.951019$GPVTG,,T,,M,0.081,N,0.151,K,A*2F
946684882.951141$GPVTG,,T,,M,0.081,N,0.151,K,A*2F
946684882.951293$GPVTG,,T,,M,0.081,N,0.151,K,A*2F
946684882.951507$GPVTG,,T,,M,0.081,N,0.151,K,A*2F
946684882.951660$GPVTG,,T,,M,0.081,N,0.151,K,A*2F
946684882.951782$GPVTG,,T,,M,0.081,N,0.151,K,A*2F
946684882.951934$GPVTG,,T,,M,0.081,N,0.151,K,A*2F
946684882.952056$GPVTG,,T,,M,0.081,N,0.151,K,A*2F
946684882.952209$GPVTG,,T,,M,0.081,N,0.151,K,A*2F
946684882.952331$GPVTG,,T,,M,0.081,N,0.151,K,A*2F
946684882.952575$GPVTG,,T,,M,0.081,N,0.151,K,A*2F
946684882.952697$GPVTG,,T,,M,0.081,N,0.151,K,A*2F
946684882.952850$GPVTG,,T,,M,0.081,N,0.151,K,A*2F
946684882.955596$GPGGA,015603.20,3957.16348,N,07511.46067,W,1,06,1.35,26.9,M,-34.5,M,,*5F
946684882.961639$GPGSV,2,1,07,01,15,292,36,12,25,046,43,14,65,057,36,18,,,22*4D
946684882.961822$GPGSV,2,1,07,01,15,292,36,12,25,046,43,14,65,057,36,18,,,22*4D
946684882.962036$GPGSV,2,1,07,01,15,292,36,12,25,046,43,14,65,057,36,18,,,22*4D
946684882.962188$GPGSV,2,1,07,01,15,292,36,12,25,046,43,14,65,057,36,18,,,22*4D
946684882.962341$GPGSV,2,1,07,01,15,292,36,12,25,046,43,14,65,057,36,18,,,22*4D
946684882.962585$GPGSV,2,1,07,01,15,292,36,12,25,046,43,14,65,057,36,18,,,22*4D
946684882.962768$GPGSV,2,1,07,01,15,292,36,12,25,046,43,14,65,057,36,18,,,22*4D
946684883.134948$GPGGA,015603.40,3957.16347,N,07511.46068,W,1,06,1.35,26.9,M,-34.5,M,,*59
946684883.135162$GPGGA,015603.40,3957.16347,N,07511.46068,W,1,06,1.35,26.9,M,-34.5,M,,*59
946684883.135314$GPGGA,015603.40,3957.16347,N,07511.46068,W,1,06,1.35,26.9,M,-34.5,M,,*59
946684883.135498$GPGGA,015603.40,3957.16347,N,07511.46068,W,1,06,1.35,26.9,M,-34.5,M,,*59
946684883.135742$GPGGA,015603.40,3957.16347,N,07511.46068,W,1,06,1.35,26.9,M,-34.5,M,,*59
946684883.135925$GPGGA,015603.40,3957.16347,N,07511.46068,W,1,06,1.35,26.9,M,-34.5,M,,*59
946684883.136077$GPGGA,015603.40,3957.16347,N,07511.46068,W,1,06,1.35,26.9,M,-34.5,M,,*59
946684883.136230$GPGGA,015603.40,3957.16347,N,07511.46068,W,1,06,1.35,26.9,M,-34.5,M,,*59
946684883.136383$GPGGA,015603.40,3957.16347,N,07511.46068,W,1,06,1.35,26.9,M,-34.5,M,,*59
946684883.335632$GPVTG,,T,,M,0.166,N,0.307,K,A*26
946684883.335815$GPVTG,,T,,M,0.166,N,0.307,K,A*26
946684883.336151$GPVTG,,T,,M,0.166,N,0.307,K,A*26
946684883.336303$GPVTG,,T,,M,0.166,N,0.307,K,A*26
946684883.336456$GPVTG,,T,,M,0.166,N,0.307,K,A*26
946684883.336578$GPVTG,,T,,M,0.166,N,0.307,K,A*26
946684883.336730$GPVTG,,T,,M,0.166,N,0.307,K,A*26
946684883.337036$GPVTG,,T,,M,0.166,N,0.307,K,A*26
946684883.337188$GPVTG,,T,,M,0.166,N,0.307,K,A*26
946684883.337310$GPVTG,,T,,M,0.166,N,0.307,K,A*26
946684883.337463$GPVTG,,T,,M,0.166,N,0.307,K,A*26
946684883.337585$GPVTG,,T,,M,0.166,N,0.307,K,A*26
946684883.340270$GPGSA,A,3,32,01,22,25,12,14,,,,,,,2.94,1.35,2.61*0E
946684883.340454$GPGSA,A,3,32,01,22,25,12,14,,,,,,,2.94,1.35,2.61*0E
946684883.340606$GPGSA,A,3,32,01,22,25,12,14,,,,,,,2.94,1.35,2.61*0E
946684883.340759$GPGSA,A,3,32,01,22,25,12,14,,,,,,,2.94,1.35,2.61*0E
946684883.340881$GPGSA,A,3,32,01,22,25,12,14,,,,,,,2.94,1.35,2.61*0E
946684883.341156$GPGSA,A,3,32,01,22,25,12,14,,,,,,,2.94,1.35,2.61*0E
946684883.341308$GPGSA,A,3,32,01,22,25,12,14,,,,,,,2.94,1.35,2.61*0E
946684883.341461$GPGSA,A,3,32,01,22,25,12,14,,,,,,,2.94,1.35,2.61*0E
946684883.341583$GPGSA,A,3,32,01,22,25,12,14,,,,,,,2.94,1.35,2.61*0E
946684883.341735$GPGSA,A,3,32,01,22,25,12,14,,,,,,,2.94,1.35,2.61*0E
946684883.536621$GPGGA,015603.80,3957.16350,N,07511.46071,W,1,06,1.35,27.0,M,-34.5,M,,*53
946684883.536804$GPGGA,015603.80,3957.16350,N,07511.46071,W,1,06,1.35,27.0,M,-34.5,M,,*53
946684883.536956$GPGGA,015603.80,3957.16350,N,07511.46071,W,1,06,1.35,27.0,M,-34.5,M,,*53
946684883.537109$GPGGA,015603.80,3957.16350,N,07511.46071,W,1,06,1.35,27.0,M,-34.5,M,,*53
946684883.537384$GPGGA,015603.80,3957.16350,N,07511.46071,W,1,06,1.35,27.0,M,-34.5,M,,*53
946684883.537536$GPGGA,015603.80,3957.16350,N,07511.46071,W,1,06,1.35,27.0,M,-34.5,M,,*53
946684883.537689$GPGGA,015603.80,3957.16350,N,07511.46071,W,1,06,1.35,27.0,M,-34.5,M,,*53
946684883.537841$GPGGA,015603.80,3957.16350,N,07511.46071,W,1,06,1.35,27.0,M,-34.5,M,,*53
946684883.537994$GPGGA,015603.80,3957.16350,N,07511.46071,W,1,06,1.35,27.0,M,-34.5,M,,*53
946684883.538146$GPGGA,015603.80,3957.16350,N,07511.46071,W,1,06,1.35,27.0,M,-34.5,M,,*53
946684883.538421$GPGGA,015603.80,3957.16350,N,07511.46071,W,1,06,1.35,27.0,M,-34.5,M,,*53
946684883.545532$GPGSV,2,2,07,22,45,169,19,25,50,082,41,32,33,311,43*41
946684883.545837$GPGSV,2,1,07,01,15,292,36,12,25,046,44,14,65,057,36,18,,,23*4B
946684883.546020$GPGSV,2,1,07,01,15,292,36,12,25,046,44,14,65,057,36,18,,,23*4B
946684883.547332$GPGSV,2,1,07,01,15,292,36,12,25,046,44,14,65,057,36,18,,,23*4B
946684883.547607$GPGSV,2,1,07,01,15,292,36,12,25,046,44,14,65,057,36,18,,,23*4B
946684883.547882$GPGSV,2,1,07,01,15,292,36,12,25,046,44,14,65,057,36,18,,,23*4B
946684883.548065$GPGSV,2,1,07,01,15,292,36,12,25,046,44,14,65,057,36,18,,,23*4B
946684883.549377$GPGSV,2,1,07,01,15,292,36,12,25,046,44,14,65,057,36,18,,,23*4B
946684883.549621$GPGSV,2,1,07,01,15,292,36,12,25,046,44,14,65,057,36,18,,,23*4B
946684883.549804$GPGSV,2,1,07,01,15,292,36,12,25,046,44,14,65,057,36,18,,,23*4B
946684883.937896$GPGSA,A,3,32,01,22,25,12,14,,,,,,,2.94,1.35,2.61*0E
946684883.938049$GPGGA,015604.20,3957.16351,N,07511.46073,W,1,06,1.35,27.1,M,-34.5,M,,*5C
946684883.938232$GPGGA,015604.20,3957.16351,N,07511.46073,W,1,06,1.35,27.1,M,-34.5,M,,*5C
946684883.938385$GPGGA,015604.20,3957.16351,N,07511.46073,W,1,06,1.35,27.1,M,-34.5,M,,*5C
946684883.938598$GPGGA,015604.20,3957.16351,N,07511.46073,W,1,06,1.35,27.1,M,-34.5,M,,*5C
946684883.938873$GPGGA,015604.20,3957.16351,N,07511.46073,W,1,06,1.35,27.1,M,-34.5,M,,*5C
946684883.939025$GPGGA,015604.20,3957.16351,N,07511.46073,W,1,06,1.35,27.1,M,-34.5,M,,*5C
946684883.939178$GPGGA,015604.20,3957.16351,N,07511.46073,W,1,06,1.35,27.1,M,-34.5,M,,*5C
946684884.336395$GPGGA,015604.60,3957.16353,N,07511.46076,W,1,06,1.35,27.2,M,-34.5,M,,*5C
946684884.336608$GPGGA,015604.60,3957.16353,N,07511.46076,W,1,06,1.35,27.2,M,-34.5,M,,*5C
946684884.336761$GPGGA,015604.60,3957.16353,N,07511.46076,W,1,06,1.35,27.2,M,-34.5,M,,*5C
946684884.337005$GPGGA,015604.60,3957.16353,N,07511.46076,W,1,06,1.35,27.2,M,-34.5,M,,*5C
946684884.337158$GPGGA,015604.60,3957.16353,N,07511.46076,W,1,06,1.35,27.2,M,-34.5,M,,*5C
946684884.337524$GPGGA,015604.60,3957.16353,N,07511.46076,W,1,06,1.35,27.2,M,-34.5,M,,*5C
946684884.337707$GPGGA,015604.60,3957.16353,N,07511.46076,W,1,06,1.35,27.2,M,-34.5,M,,*5C
946684884.337860$GPGGA,015604.60,3957.16353,N,07511.46076,W,1,06,1.35,27.2,M,-34.5,M,,*5C
946684884.338012$GPGGA,015604.60,3957.16353,N,07511.46076,W,1,06,1.35,27.2,M,-34.5,M,,*5C
946684884.340606$GPGSV,2,1,07,01,15,292,36,12,25,046,43,14,65,057,35,18,,,23*4F
946684884.340789$GPGSV,2,1,07,01,15,292,36,12,25,046,43,14,65,057,35,18,,,23*4F
946684884.340942$GPGSV,2,1,07,01,15,292,36,12,25,046,43,14,65,057,35,18,,,23*4F
946684884.341094$GPGSV,2,1,07,01,15,292,36,12,25,046,43,14,65,057,35,18,,,23*4F
946684884.341369$GPGSV,2,1,07,01,15,292,36,12,25,046,43,14,65,057,35,18,,,23*4F
946684884.341522$GPGSV,2,1,07,01,15,292,36,12,25,046,43,14,65,057,35,18,,,23*4F
946684884.341674$GPGSV,2,1,07,01,15,292,36,12,25,046,43,14,65,057,35,18,,,23*4F
946684884.341827$GPGSV,2,1,07,01,15,292,36,12,25,046,43,14,65,057,35,18,,,23*4F
946684884.341979$GPGSV,2,1,07,01,15,292,36,12,25,046,43,14,65,057,35,18,,,23*4F
946684884.342132$GPGSV,2,1,07,01,15,292,36,12,25,046,43,14,65,057,35,18,,,23*4F
946684884.342376$GPGSV,2,1,07,01,15,292,36,12,25,046,43,14,65,057,35,18,,,23*4F
946684884.347564$GPGLL,3957.16353,N,07511.46076,W,015604.60,A,A*70
946684884.347747$GPGLL,3957.16353,N,07511.46076,W,015604.60,A,A*70
946684884.347900$GPGLL,3957.16353,N,07511.46076,W,015604.60,A,A*70
946684884.348022$GPGLL,3957.16353,N,07511.46076,W,015604.60,A,A*70
946684884.348175$GPGLL,3957.16353,N,07511.46076,W,015604.60,A,A*70
946684884.348419$GPGLL,3957.16353,N,07511.46076,W,015604.60,A,A*70
946684884.348571$GPGLL,3957.16353,N,07511.46076,W,015604.60,A,A*70
946684884.348724$GPGLL,3957.16353,N,07511.46076,W,015604.60,A,A*70
946684884.348846$GPGLL,3957.16353,N,07511.46076,W,015604.60,A,A*70
946684884.348999$GPGLL,3957.16353,N,07511.46076,W,015604.60,A,A*70
946684884.349151$GPGLL,3957.16353,N,07511.46076,W,015604.60,A,A*70
946684884.349365$GPGLL,3957.16353,N,07511.46076,W,015604.60,A,A*70
946684884.349517$GPGLL,3957.16353,N,07511.46076,W,015604.60,A,A*70
946684884.349670$GPGLL,3957.16353,N,07511.46076,W,015604.60,A,A*70
946684884.537841$GPGGA,015604.80,3957.16352,N,07511.46077,W,1,06,1.35,27.2,M,-34.5,M,,*52
946684884.538024$GPGGA,015604.80,3957.16352,N,07511.46077,W,1,06,1.35,27.2,M,-34.5,M,,*52
946684884.538208$GPGGA,015604.80,3957.16352,N,07511.46077,W,1,06,1.35,27.2,M,-34.5,M,,*52
946684884.538360$GPGGA,015604.80,3957.16352,N,07511.46077,W,1,06,1.35,27.2,M,-34.5,M,,*52
946684884.538513$GPGGA,015604.80,3957.16352,N,07511.46077,W,1,06,1.35,27.2,M,-34.5,M,,*52
946684884.538787$GPGGA,015604.80,3957.16352,N,07511.46077,W,1,06,1.35,27.2,M,-34.5,M,,*52
946684884.538940$GPGGA,015604.80,3957.16352,N,07511.46077,W,1,06,1.35,27.2,M,-34.5,M,,*52
946684884.546936$GPGSV,2,2,07,22,45,169,19,25,50,082,41,32,33,311,43*41
946684884.547119$GPGSV,2,2,07,22,45,169,19,25,50,082,41,32,33,311,43*41
946684884.547241$GPGSV,2,2,07,22,45,169,19,25,50,082,41,32,33,311,43*41
946684884.547393$GPGSV,2,2,07,22,45,169,19,25,50,082,41,32,33,311,43*41
946684884.547637$GPGSV,2,2,07,22,45,169,19,25,50,082,41,32,33,311,43*41
946684884.547882$GPGSV,2,2,07,22,45,169,19,25,50,082,41,32,33,311,43*41
946684884.548034$GPGSV,2,2,07,22,45,169,19,25,50,082,41,32,33,311,43*41
946684884.548156$GPGSV,2,2,07,22,45,169,19,25,50,082,41,32,33,311,43*41
946684884.548309$GPGSV,2,2,07,22,45,169,19,25,50,082,41,32,33,311,43*41
946684884.548461$GPGSV,2,2,07,22,45,169,19,25,50,082,41,32,33,311,43*41
946684884.548706$GPGSV,2,2,07,22,45,169,19,25,50,082,41,32,33,311,43*41
946684884.548858$GPGSV,2,2,07,22,45,169,19,25,50,082,41,32,33,311,43*41
946684884.549011$GPGSV,2,2,07,22,45,169,19,25,50,082,41,32,33,311,43*41
946684884.549133$GPGSV,2,2,07,22,45,169,19,25,50,082,41,32,33,311,43*41
946684884.950408$GPGLL,3957.16356,N,07511.46079,W,015605.20,A,A*7F
946684884.950592$GPGLL,3957.16356,N,07511.46079,W,015605.20,A,A*7F
946684884.950744$GPGLL,3957.16356,N,07511.46079,W,015605.20,A,A*7F
946684884.950866$GPGLL,3957.16356,N,07511.46079,W,015605.20,A,A*7F
946684884.951232$GPGLL,3957.16356,N,07511.46079,W,015605.20,A,A*7F
946684884.951416$GPGLL,3957.16356,N,07511.46079,W,015605.20,A,A*7F
946684884.951538$GPGLL,3957.16356,N,07511.46079,W,015605.20,A,A*7F
946684884.951690$GPGLL,3957.16356,N,07511.46079,W,015605.20,A,A*7F
946684884.951843$GPGLL,3957.16356,N,07511.46079,W,015605.20,A,A*7F
946684884.951965$GPGLL,3957.16356,N,07511.46079,W,015605.20,A,A*7F
946684884.952209$GPGLL,3957.16356,N,07511.46079,W,015605.20,A,A*7F
946684884.952362$GPGLL,3957.16356,N,07511.46079,W,015605.20,A,A*7F
946684884.952514$GPGLL,3957.16356,N,07511.46079,W,015605.20,A,A*7F
946684884.952667$GPGLL,3957.16356,N,07511.46079,W,015605.20,A,A*7F
946684885.136596$GPVTG,,T,,M,0.110,N,0.204,K,A*25
946684885.136779$GPVTG,,T,,M,0.110,N,0.204,K,A*25
946684885.136932$GPVTG,,T,,M,0.110,N,0.204,K,A*25
946684885.137084$GPVTG,,T,,M,0.110,N,0.204,K,A*25
946684885.137207$GPVTG,,T,,M,0.110,N,0.204,K,A*25
946684885.137451$GPVTG,,T,,M,0.110,N,0.204,K,A*25
946684885.137603$GPVTG,,T,,M,0.110,N,0.204,K,A*25
946684885.137725$GPVTG,,T,,M,0.110,N,0.204,K,A*25
946684885.137878$GPVTG,,T,,M,0.110,N,0.204,K,A*25
946684885.138000$GPVTG,,T,,M,0.110,N,0.204,K,A*25
946684885.138153$GPVTG,,T,,M,0.110,N,0.204,K,A*25
946684885.138275$GPVTG,,T,,M,0.110,N,0.204,K,A*25
946684885.138519$GPVTG,,T,,M,0.110,N,0.204,K,A*25
946684885.138671$GPVTG,,T,,M,0.110,N,0.204,K,A*25
946684885.334503$GPRMC,015605.60,A,3957.16358,N,07511.46081,W,0.076,,141212,,,A*6F
946684885.334808$GPRMC,015605.60,A,3957.16358,N,07511.46081,W,0.076,,141212,,,A*6F
946684885.334991$GPRMC,015605.60,A,3957.16358,N,07511.46081,W,0.076,,141212,,,A*6F
946684885.335144$GPRMC,015605.60,A,3957.16358,N,07511.46081,W,0.076,,141212,,,A*6F
946684885.335266$GPRMC,015605.60,A,3957.16358,N,07511.46081,W,0.076,,141212,,,A*6F
946684885.335418$GPRMC,015605.60,A,3957.16358,N,07511.46081,W,0.076,,141212,,,A*6F
946684885.335693$GPRMC,015605.60,A,3957.16358,N,07511.46081,W,0.076,,141212,,,A*6F
946684885.335845$GPRMC,015605.60,A,3957.16358,N,07511.46081,W,0.076,,141212,,,A*6F
946684885.335998$GPRMC,015605.60,A,3957.16358,N,07511.46081,W,0.076,,141212,,,A*6F
946684885.535644$GPVTG,,T,,M,0.059,N,0.110,K,A*2F
946684885.535919$GPVTG,,T,,M,0.059,N,0.110,K,A*2F
946684885.536071$GPVTG,,T,,M,0.059,N,0.110,K,A*2F
946684885.536224$GPVTG,,T,,M,0.059,N,0.110,K,A*2F
946684885.536346$GPVTG,,T,,M,0.059,N,0.110,K,A*2F
946684885.536499$GPVTG,,T,,M,0.059,N,0.110,K,A*2F
946684885.536621$GPVTG,,T,,M,0.059,N,0.110,K,A*2F
946684885.536743$GPVTG,,T,,M,0.059,N,0.110,K,A*2F
946684885.536987$GPVTG,,T,,M,0.059,N,0.110,K,A*2F
946684885.537139$GPVTG,,T,,M,0.059,N,0.110,K,A*2F
946684885.537261$GPVTG,,T,,M,0.059,N,0.110,K,A*2F
946684885.537414$GPVTG,,T,,M,0.059,N,0.110,K,A*2F
946684885.537536$GPVTG,,T,,M,0.059,N,0.110,K,A*2F
946684885.537658$GPVTG,,T,,M,0.059,N,0.110,K,A*2F
946684885.537811$GPVTG,,T,,M,0.059,N,0.110,K,A*2F
946684885.538055$GPVTG,,T,,M,0.059,N,0.110,K,A*2F
946684885.540740$GPGSA,A,3,32,01,22,25,12,14,,,,,,,2.94,1.35,2.61*0E
946684885.541015$GPGSA,A,3,32,01,22,25,12,14,,,,,,,2.94,1.35,2.61*0E
946684885.541168$GPGSA,A,3,32,01,22,25,12,14,,,,,,,2.94,1.35,2.61*0E
946684885.541320$GPGSA,A,3,32,01,22,25,12,14,,,,,,,2.94,1.35,2.61*0E
946684885.541442$GPGSA,A,3,32,01,22,25,12,14,,,,,,,2.94,1.35,2.61*0E
946684885.541595$GPGSA,A,3,32,01,22,25,12,14,,,,,,,2.94,1.35,2.61*0E
946684885.541748$GPGSA,A,3,32,01,22,25,12,14,,,,,,,2.94,1.35,2.61*0E
946684885.541992$GPGSA,A,3,32,01,22,25,12,14,,,,,,,2.94,1.35,2.61*0E
946684885.542144$GPGSA,A,3,32,01,22,25,12,14,,,,,,,2.94,1.35,2.61*0E
946684885.542297$GPGSA,A,3,32,01,22,25,12,14,,,,,,,2.94,1.35,2.61*0E
946684885.759826$GPGSV,2,2,07,22,45,169,19,25,50,082,41,32,33,311,43*41
946684885.760223$GPGSV,2,2,07,22,45,169,19,25,50,082,41,32,33,311,43*41
946684885.760406$GPGSV,2,2,07,22,45,169,19,25,50,082,41,32,33,311,43*41
946684885.760589$GPGSV,2,2,07,22,45,169,19,25,50,082,41,32,33,311,43*41
946684885.760711$GPGSV,2,2,07,22,45,169,19,25,50,082,41,32,33,311,43*41
946684885.760864$GPGSV,2,2,07,22,45,169,19,25,50,082,41,32,33,311,43*41
946684885.761016$GPGSV,2,2,07,22,45,169,19,25,50,082,41,32,33,311,43*41
946684885.937255$GPGGA,015606.20,3957.16360,N,07511.46083,W,1,06,1.35,27.5,M,-34.5,M,,*57
946684885.937530$GPVTG,,T,,M,0.076,N,0.140,K,A*27
946684885.937683$GPVTG,,T,,M,0.076,N,0.140,K,A*27
946684885.937835$GPVTG,,T,,M,0.076,N,0.140,K,A*27
946684885.937957$GPVTG,,T,,M,0.076,N,0.140,K,A*27
946684885.938079$GPVTG,,T,,M,0.076,N,0.140,K,A*27
946684885.938232$GPVTG,,T,,M,0.076,N,0.140,K,A*27
946684885.938354$GPVTG,,T,,M,0.076,N,0.140,K,A*27
946684885.938659$GPVTG,,T,,M,0.076,N,0.140,K,A*27
946684885.938812$GPVTG,,T,,M,0.076,N,0.140,K,A*27
946684885.938934$GPVTG,,T,,M,0.076,N,0.140,K,A*27
946684885.939086$GPVTG,,T,,M,0.076,N,0.140,K,A*27
946684885.939208$GPVTG,,T,,M,0.076,N,0.140,K,A*27
946684885.939361$GPVTG,,T,,M,0.076,N,0.140,K,A*27
946684885.939575$GPVTG,,T,,M,0.076,N,0.140,K,A*27
946684885.939727$GPVTG,,T,,M,0.076,N,0.140,K,A*27
946684885.939849$GPVTG,,T,,M,0.076,N,0.140,K,A*27
946684885.940002$GPVTG,,T,,M,0.076,N,0.140,K,A*27
946684885.940124$GPVTG,,T,,M,0.076,N,0.140,K,A*27
946684885.942779$GPGSV,2,1,07,01,15,292,36,12,25,046,43,14,65,057,35,18,,,21*4D
946684885.942962$GPGSV,2,1,07,01,15,292,36,12,25,046,43,14,65,057,35,18,,,21*4D
946684885.943115$GPGSV,2,1,07,01,15,292,36,12,25,046,43,14,65,057,35,18,,,21*4D
946684885.943267$GPGSV,2,1,07,01,15,292,36,12,25,046,43,14,65,057,35,18,,,21*4D
946684885.943511$GPGSV,2,1,07,01,15,292,36,12,25,046,43,14,65,057,35,18,,,21*4D
946684885.943695$GPGSV,2,1,07,01,15,292,36,12,25,046,43,14,65,057,35,18,,,21*4D
946684885.943847$GPGSV,2,1,07,01,15,292,36,12,25,046,43,14,65,057,35,18,,,21*4D
946684886.134979$GPRMC,015606.40,A,3957.16362,N,07511.46083,W,0.123,,141212,,,A*64
946684886.135162$GPRMC,015606.40,A,3957.16362,N,07511.46083,W,0.123,,141212,,,A*64
946684886.135314$GPRMC,015606.40,A,3957.16362,N,07511.46083,W,0.123,,141212,,,A*64
946684886.135467$GPRMC,015606.40,A,3957.16362,N,07511.46083,W,0.123,,141212,,,A*64
946684886.135742$GPRMC,015606.40,A,3957.16362,N,07511.46083,W,0.123,,141212,,,A*64
946684886.135894$GPRMC,015606.40,A,3957.16362,N,07511.46083,W,0.123,,141212,,,A*64
946684886.136047$GPRMC,015606.40,A,3957.16362,N,07511.46083,W,0.123,,141212,,,A*64
946684886.136199$GPRMC,015606.40,A,3957.16362,N,07511.46083,W,0.123,,141212,,,A*64
946684886.136352$GPRMC,015606.40,A,3957.16362,N,07511.46083,W,0.123,,141212,,,A*64
946684886.334869$GPRMC,015606.60,A,3957.16365,N,07511.46084,W,0.084,,141212,,,A*6A
946684886.335144$GPRMC,015606.60,A,3957.16365,N,07511.46084,W,0.084,,141212,,,A*6A
946684886.335296$GPRMC,015606.60,A,3957.16365,N,07511.46084,W,0.084,,141212,,,A*6A
946684886.335449$GPRMC,015606.60,A,3957.16365,N,07511.46084,W,0.084,,141212,,,A*6A
946684886.335601$GPRMC,015606.60,A,3957.16365,N,07511.46084,W,0.084,,141212,,,A*6A
946684886.335754$GPRMC,015606.60,A,3957.16365,N,07511.46084,W,0.084,,141212,,,A*6A
946684886.335998$GPRMC,015606.60,A,3957.16365,N,07511.46084,W,0.084,,141212,,,A*6A
946684886.336181$GPRMC,015606.60,A,3957.16365,N,07511.46084,W,0.084,,141212,,,A*6A
946684886.336334$GPRMC,015606.60,A,3957.16365,N,07511.46084,W,0.084,,141212,,,A*6A
946684886.336486$GPRMC,015606.60,A,3957.16365,N,07511.46084,W,0.084,,141212,,,A*6A
946684887.147613$GPGSV,2,1,07,01,15,292,34,12,25,046,41,14,65,057,32,18,,,21*4A
946684887.147796$GPGSV,2,1,07,01,15,292,34,12,25,046,41,14,65,057,32,18,,,21*4A
946684887.147949$GPGSV,2,1,07,01,15,292,34,12,25,046,41,14,65,057,32,18,,,21*4A
946684887.148101$GPGSV,2,1,07,01,15,292,34,12,25,046,41,14,65,057,32,18,,,21*4A
946684887.148254$GPGSV,2,1,07,01,15,292,34,12,25,046,41,14,65,057,32,18,,,21*4A
946684887.148406$GPGSV,2,1,07,01,15,292,34,12,25,046,41,14,65,057,32,18,,,21*4A
946684887.148559$GPGSV,2,1,07,01,15,292,34,12,25,046,41,14,65,057,32,18,,,21*4A
946684887.148681$GPGSV,2,1,07,01,15,292,34,12,25,046,41,14,65,057,32,18,,,21*4A
946684887.737670$GPGGA,015608.00,3957.16385,N,07511.46089,W,1,06,1.35,27.9,M,-34.5,M,,*56
946684887.737884$GPGGA,015608.00,3957.16385,N,07511.46089,W,1,06,1.35,27.9,M,-34.5,M,,*56
946684887.738037$GPGGA,015608.00,3957.16385,N,07511.46089,W,1,06,1.35,27.9,M,-34.5,M,,*56
946684887.738189$GPGGA,015608.00,3957.16385,N,07511.46089,W,1,06,1.35,27.9,M,-34.5,M,,*56
946684887.738555$GPGGA,015608.00,3957.16385,N,07511.46089,W,1,06,1.35,27.9,M,-34.5,M,,*56
946684887.738739$GPGGA,015608.00,3957.16385,N,07511.46089,W,1,06,1.35,27.9,M,-34.5,M,,*56
946684887.738891$GPGGA,015608.00,3957.16385,N,07511.46089,W,1,06,1.35,27.9,M,-34.5,M,,*56
946684887.940063$GPGSA,A,3,32,01,22,25,12,14,,,,,,,2.94,1.35,2.61*0E
946684887.940246$GPGSA,A,3,32,01,22,25,12,14,,,,,,,2.94,1.35,2.61*0E
946684887.940399$GPGSA,A,3,32,01,22,25,12,14,,,,,,,2.94,1.35,2.61*0E
946684887.940521$GPGSA,A,3,32,01,22,25,12,14,,,,,,,2.94,1.35,2.61*0E
946684887.940795$GPGSA,A,3,32,01,22,25,12,14,,,,,,,2.94,1.35,2.61*0E
946684887.940948$GPGSA,A,3,32,01,22,25,12,14,,,,,,,2.94,1.35,2.61*0E
946684887.941101$GPGSA,A,3,32,01,22,25,12,14,,,,,,,2.94,1.35,2.61*0E
946684887.941223$GPGSA,A,3,32,01,22,25,12,14,,,,,,,2.94,1.35,2.61*0E
946684887.941375$GPGSA,A,3,32,01,22,25,12,14,,,,,,,2.94,1.35,2.61*0E
946684888.336456$GPGGA,015608.60,3957.16398,N,07511.46090,W,1,06,1.35,28.1,M,-34.5,M,,*53
946684888.336669$GPGGA,015608.60,3957.16398,N,07511.46090,W,1,06,1.35,28.1,M,-34.5,M,,*53
946684888.336883$GPGGA,015608.60,3957.16398,N,07511.46090,W,1,06,1.35,28.1,M,-34.5,M,,*53
946684888.337066$GPGGA,015608.60,3957.16398,N,07511.46090,W,1,06,1.35,28.1,M,-34.5,M,,*53
946684888.337310$GPGGA,015608.60,3957.16398,N,07511.46090,W,1,06,1.35,28.1,M,-34.5,M,,*53
946684888.337493$GPGGA,015608.60,3957.16398,N,07511.46090,W,1,06,1.35,28.1,M,-34.5,M,,*53
946684888.337646$GPGGA,015608.60,3957.16398,N,07511.46090,W,1,06,1.35,28.1,M,-34.5,M,,*53
946684888.337799$GPGGA,015608.60,3957.16398,N,07511.46090,W,1,06,1.35,28.1,M,-34.5,M,,*53
946684888.337951$GPGGA,015608.60,3957.16398,N,07511.46090,W,1,06,1.35,28.1,M,-34.5,M,,*53
946684888.340545$GPGSV,2,1,07,01,15,292,37,12,25,046,42,14,65,057,35,18,,,21*4D
946684888.340728$GPGSV,2,1,07,01,15,292,37,12,25,046,42,14,65,057,35,18,,,21*4D
946684888.340881$GPGSV,2,1,07,01,15,292,37,12,25,046,42,14,65,057,35,18,,,21*4D
946684888.341033$GPGSV,2,1,07,01,15,292,37,12,25,046,42,14,65,057,35,18,,,21*4D
946684888.341186$GPGSV,2,1,07,01,15,292,37,12,25,046,42,14,65,057,35,18,,,21*4D
946684888.341430$GPGSV,2,1,07,01,15,292,37,12,25,046,42,14,65,057,35,18,,,21*4D
946684888.341583$GPGSV,2,1,07,01,15,292,37,12,25,046,42,14,65,057,35,18,,,21*4D
946684888.341735$GPGSV,2,1,07,01,15,292,37,12,25,046,42,14,65,057,35,18,,,21*4D
946684888.341888$GPGSV,2,1,07,01,15,292,37,12,25,046,42,14,65,057,35,18,,,21*4D
946684888.342041$GPGSV,2,1,07,01,15,292,37,12,25,046,42,14,65,057,35,18,,,21*4D
946684888.342285$GPGSV,2,1,07,01,15,292,37,12,25,046,42,14,65,057,35,18,,,21*4D
946684888.347503$GPGLL,3957.16398,N,07511.46090,W,015608.60,A,A*73
946684888.347656$GPGLL,3957.16398,N,07511.46090,W,015608.60,A,A*73
946684888.347808$GPGLL,3957.16398,N,07511.46090,W,015608.60,A,A*73
946684888.347961$GPGLL,3957.16398,N,07511.46090,W,015608.60,A,A*73
946684888.348114$GPGLL,3957.16398,N,07511.46090,W,015608.60,A,A*73
946684888.348358$GPGLL,3957.16398,N,07511.46090,W,015608.60,A,A*73
946684888.348510$GPGLL,3957.16398,N,07511.46090,W,015608.60,A,A*73
946684888.348663$GPGLL,3957.16398,N,07511.46090,W,015608.60,A,A*73
946684888.348785$GPGLL,3957.16398,N,07511.46090,W,015608.60,A,A*73
946684888.348937$GPGLL,3957.16398,N,07511.46090,W,015608.60,A,A*73
946684888.349060$GPGLL,3957.16398,N,07511.46090,W,015608.60,A,A*73
946684888.349304$GPGLL,3957.16398,N,07511.46090,W,015608.60,A,A*73
946684888.349456$GPGLL,3957.16398,N,07511.46090,W,015608.60,A,A*73
946684888.349609$GPGLL,3957.16398,N,07511.46090,W,015608.60,A,A*73
946684888.538330$GPGGA,015608.80,3957.16402,N,07511.46091,W,1,06,1.35,28.1,M,-34.5,M,,*58
946684888.538635$GPGGA,015608.80,3957.16402,N,07511.46091,W,1,06,1.35,28.1,M,-34.5,M,,*58
946684888.538787$GPGGA,015608.80,3957.16402,N,07511.46091,W,1,06,1.35,28.1,M,-34.5,M,,*58
946684888.538940$GPGGA,015608.80,3957.16402,N,07511.46091,W,1,06,1.35,28.1,M,-34.5,M,,*58
946684888.539123$GPGGA,015608.80,3957.16402,N,07511.46091,W,1,06,1.35,28.1,M,-34.5,M,,*58
946684888.539276$GPGGA,015608.80,3957.16402,N,07511.46091,W,1,06,1.35,28.1,M,-34.5,M,,*58
946684888.539611$GPGGA,015608.80,3957.16402,N,07511.46091,W,1,06,1.35,28.1,M,-34.5,M,,*58
946684888.550720$GPGLL,3957.16402,N,07511.46091,W,015608.80,A,A*78
946684888.550903$GPGLL,3957.16402,N,07511.46091,W,015608.80,A,A*78
946684888.551055$GPGLL,3957.16402,N,07511.46091,W,015608.80,A,A*78
946684888.551208$GPGLL,3957.16402,N,07511.46091,W,015608.80,A,A*78
946684888.551361$GPGLL,3957.16402,N,07511.46091,W,015608.80,A,A*78
946684888.551605$GPGLL,3957.16402,N,07511.46091,W,015608.80,A,A*78
946684888.551757$GPGLL,3957.16402,N,07511.46091,W,015608.80,A,A*78
946684888.551910$GPGLL,3957.16402,N,07511.46091,W,015608.80,A,A*78
946684888.552062$GPGLL,3957.16402,N,07511.46091,W,015608.80,A,A*78
946684888.753051$GPGLL,3957.16406,N,07511.46091,W,015609.00,A,A*75
946684888.753234$GPGLL,3957.16406,N,07511.46091,W,015609.00,A,A*75
946684888.753387$GPGLL,3957.16406,N,07511.46091,W,015609.00,A,A*75
946684888.753509$GPGLL,3957.16406,N,07511.46091,W,015609.00,A,A*75
946684888.753662$GPGLL,3957.16406,N,07511.46091,W,015609.00,A,A*75
946684888.753906$GPGLL,3957.16406,N,07511.46091,W,015609.00,A,A*75
946684888.754058$GPGLL,3957.16406,N,07511.46091,W,015609.00,A,A*75
946684888.754211$GPGLL,3957.16406,N,07511.46091,W,015609.00,A,A*75
946684888.754364$GPGLL,3957.16406,N,07511.46091,W,015609.00,A,A*75
946684888.754486$GPGLL,3957.16406,N,07511.46091,W,015609.00,A,A*75
946684888.754638$GPGLL,3957.16406,N,07511.46091,W,015609.00,A,A*75
946684888.754882$GPGLL,3957.16406,N,07511.46091,W,015609.00,A,A*75
946684888.755035$GPGLL,3957.16406,N,07511.46091,W,015609.00,A,A*75
946684888.755157$GPGLL,3957.16406,N,07511.46091,W,015609.00,A,A*75
946684888.755310$GPGLL,3957.16406,N,07511.46091,W,015609.00,A,A*75
946684888.955383$GPGGA,015609.20,3957.16410,N,07511.46092,W,1,06,1.35,28.3,M,-34.5,M,,*51
946684888.955566$GPGGA,015609.20,3957.16410,N,07511.46092,W,1,06,1.35,28.3,M,-34.5,M,,*51
946684888.955718$GPGGA,015609.20,3957.16410,N,07511.46092,W,1,06,1.35,28.3,M,-34.5,M,,*51
946684888.955871$GPGGA,015609.20,3957.16410,N,07511.46092,W,1,06,1.35,28.3,M,-34.5,M,,*51
946684888.956146$GPGGA,015609.20,3957.16410,N,07511.46092,W,1,06,1.35,28.3,M,-34.5,M,,*51
946684888.956298$GPGGA,015609.20,3957.16410,N,07511.46092,W,1,06,1.35,28.3,M,-34.5,M,,*51
946684888.956451$GPGGA,015609.20,3957.16410,N,07511.46092,W,1,06,1.35,28.3,M,-34.5,M,,*51
946684888.956604$GPGGA,015609.20,3957.16410,N,07511.46092,W,1,06,1.35,28.3,M,-34.5,M,,*51
946684888.956756$GPGGA,015609.20,3957.16410,N,07511.46092,W,1,06,1.35,28.3,M,-34.5,M,,*51
946684889.334808$GPRMC,015609.60,A,3957.16422,N,07511.46093,W,0.150,,141212,,,A*6F
946684889.334991$GPRMC,015609.60,A,3957.16422,N,07511.46093,W,0.150,,141212,,,A*6F
946684889.335174$GPRMC,015609.60,A,3957.16422,N,07511.46093,W,0.150,,141212,,,A*6F
946684889.335327$GPRMC,015609.60,A,3957.16422,N,07511.46093,W,0.150,,141212,,,A*6F
946684889.335479$GPRMC,015609.60,A,3957.16422,N,07511.46093,W,0.150,,141212,,,A*6F
946684889.335723$GPRMC,015609.60,A,3957.16422,N,07511.46093,W,0.150,,141212,,,A*6F
946684889.335876$GPRMC,015609.60,A,3957.16422,N,07511.46093,W,0.150,,141212,,,A*6F
946684889.336029$GPRMC,015609.60,A,3957.16422,N,07511.46093,W,0.150,,141212,,,A*6F
946684889.336181$GPRMC,015609.60,A,3957.16422,N,07511.46093,W,0.150,,141212,,,A*6F
946684889.749328$GPGSV,2,2,08,22,45,169,18,25,50,082,42,30,11,194,,32,33,311,43*73
946684889.749542$GPGSV,2,2,08,22,45,169,18,25,50,082,42,30,11,194,,32,33,311,43*73
946684889.749694$GPGSV,2,2,08,22,45,169,18,25,50,082,42,30,11,194,,32,33,311,43*73
946684889.749847$GPGSV,2,2,08,22,45,169,18,25,50,082,42,30,11,194,,32,33,311,43*73
946684889.750000$GPGSV,2,2,08,22,45,169,18,25,50,082,42,30,11,194,,32,33,311,43*73
946684889.750244$GPGSV,2,2,08,22,45,169,18,25,50,082,42,30,11,194,,32,33,311,43*73
946684889.951721$GPGLL,3957.16435,N,07511.46095,W,015610.20,A,A*7B
946684889.951904$GPGLL,3957.16435,N,07511.46095,W,015610.20,A,A*7B
946684889.952056$GPGLL,3957.16435,N,07511.46095,W,015610.20,A,A*7B
946684889.952209$GPGLL,3957.16435,N,07511.46095,W,015610.20,A,A*7B
946684889.952453$GPGLL,3957.16435,N,07511.46095,W,015610.20,A,A*7B
946684889.952758$GPGLL,3957.16435,N,07511.46095,W,015610.20,A,A*7B
946684889.952911$GPGLL,3957.16435,N,07511.46095,W,015610.20,A,A*7B
946684889.953063$GPGLL,3957.16435,N,07511.46095,W,015610.20,A,A*7B
946684890.134857$GPRMC,015610.40,A,3957.16439,N,07511.46096,W,0.059,,141212,,,A*62
946684890.135070$GPRMC,015610.40,A,3957.16439,N,07511.46096,W,0.059,,141212,,,A*62
946684890.135223$GPRMC,015610.40,A,3957.16439,N,07511.46096,W,0.059,,141212,,,A*62
946684890.135375$GPRMC,015610.40,A,3957.16439,N,07511.46096,W,0.059,,141212,,,A*62
946684890.135620$GPRMC,015610.40,A,3957.16439,N,07511.46096,W,0.059,,141212,,,A*62
946684890.135803$GPRMC,015610.40,A,3957.16439,N,07511.46096,W,0.059,,141212,,,A*62
946684890.135955$GPRMC,015610.40,A,3957.16439,N,07511.46096,W,0.059,,141212,,,A*62
946684890.136108$GPRMC,015610.40,A,3957.16439,N,07511.46096,W,0.059,,141212,,,A*62
946684890.136260$GPRMC,015610.40,A,3957.16439,N,07511.46096,W,0.059,,141212,,,A*62
946684890.344573$GPRMC,015610.60,A,3957.16444,N,07511.46096,W,0.052,,141212,,,A*61
946684890.360046$GPGSA,A,3,32,01,22,25,12,14,,,,,,,2.94,1.35,2.61*0E
946684890.360687$GPGSA,A,3,32,01,22,25,12,14,,,,,,,2.94,1.35,2.61*0E
946684890.361053$GPGSA,A,3,32,01,22,25,12,14,,,,,,,2.94,1.35,2.61*0E
946684890.361236$GPGSA,A,3,32,01,22,25,12,14,,,,,,,2.94,1.35,2.61*0E
946684890.361419$GPGSA,A,3,32,01,22,25,12,14,,,,,,,2.94,1.35,2.61*0E
946684890.361572$GPGSA,A,3,32,01,22,25,12,14,,,,,,,2.94,1.35,2.61*0E
946684890.361724$GPGSA,A,3,32,01,22,25,12,14,,,,,,,2.94,1.35,2.61*0E
946684890.559448$GPGSV,2,1,08,01,15,292,36,12,25,046,40,14,65,057,30,18,,,21*44
946684890.559661$GPGSV,2,1,08,01,15,292,36,12,25,046,40,14,65,057,30,18,,,21*44
946684890.559814$GPGSV,2,1,08,01,15,292,36,12,25,046,40,14,65,057,30,18,,,21*44
946684890.559967$GPGSV,2,1,08,01,15,292,36,12,25,046,40,14,65,057,30,18,,,21*44
946684890.560211$GPGSV,2,1,08,01,15,292,36,12,25,046,40,14,65,057,30,18,,,21*44
946684890.560394$GPGSV,2,1,08,01,15,292,36,12,25,046,40,14,65,057,30,18,,,21*44
946684890.560546$GPGSV,2,1,08,01,15,292,36,12,25,046,40,14,65,057,30,18,,,21*44
946684890.758483$GPGSV,2,1,08,01,15,292,38,12,25,046,42,14,65,057,34,18,,,21*4C
946684890.758666$GPGSV,2,1,08,01,15,292,38,12,25,046,42,14,65,057,34,18,,,21*4C
946684890.758880$GPGSV,2,1,08,01,15,292,38,12,25,046,42,14,65,057,34,18,,,21*4C
946684890.759033$GPGSV,2,1,08,01,15,292,38,12,25,046,42,14,65,057,34,18,,,21*4C
946684890.759185$GPGSV,2,1,08,01,15,292,38,12,25,046,42,14,65,057,34,18,,,21*4C
946684890.759338$GPGSV,2,1,08,01,15,292,38,12,25,046,42,14,65,057,34,18,,,21*4C
946684890.759613$GPGSV,2,1,08,01,15,292,38,12,25,046,42,14,65,057,34,18,,,21*4C
946684890.759765$GPGSV,2,1,08,01,15,292,38,12,25,046,42,14,65,057,34,18,,,21*4C
946684890.759918$GPGSV,2,1,08,01,15,292,38,12,25,046,42,14,65,057,34,18,,,21*4C
946684890.760070$GPGSV,2,1,08,01,15,292,38,12,25,046,42,14,65,057,34,18,,,21*4C
946684890.760192$GPGSV,2,1,08,01,15,292,38,12,25,046,42,14,65,057,34,18,,,21*4C
946684890.762725$GPGLL,3957.16453,N,07511.46097,W,015611.00,A,A*7A
946684890.762908$GPGLL,3957.16453,N,07511.46097,W,015611.00,A,A*7A
946684890.763061$GPGLL,3957.16453,N,07511.46097,W,015611.00,A,A*7A
946684890.763214$GPGLL,3957.16453,N,07511.46097,W,015611.00,A,A*7A
946684890.763336$GPGLL,3957.16453,N,07511.46097,W,015611.00,A,A*7A
946684890.763610$GPGLL,3957.16453,N,07511.46097,W,015611.00,A,A*7A
946684890.763763$GPGLL,3957.16453,N,07511.46097,W,015611.00,A,A*7A
946684890.763885$GPGLL,3957.16453,N,07511.46097,W,015611.00,A,A*7A
946684890.764038$GPGLL,3957.16453,N,07511.46097,W,015611.00,A,A*7A
946684890.959045$GPGSV,2,1,08,01,15,292,38,12,25,046,42,14,65,057,34,18,,,21*4C
946684890.959228$GPGSV,2,1,08,01,15,292,38,12,25,046,42,14,65,057,34,18,,,21*4C
946684890.959381$GPGSV,2,1,08,01,15,292,38,12,25,046,42,14,65,057,34,18,,,21*4C
946684890.959533$GPGSV,2,1,08,01,15,292,38,12,25,046,42,14,65,057,34,18,,,21*4C
946684890.959777$GPGSV,2,1,08,01,15,292,38,12,25,046,42,14,65,057,34,18,,,21*4C
946684890.959960$GPGSV,2,1,08,01,15,292,38,12,25,046,42,14,65,057,34,18,,,21*4C
946684890.960113$GPGSV,2,1,08,01,15,292,38,12,25,046,42,14,65,057,34,18,,,21*4C
946684890.960357$GPGSV,2,1,08,01,15,292,38,12,25,046,42,14,65,057,34,18,,,21*4C
946684890.960510$GPGSV,2,1,08,01,15,292,38,12,25,046,42,14,65,057,34,18,,,21*4C
946684890.962982$GPGLL,3957.16457,N,07511.46097,W,015611.20,A,A*7C
946684890.963165$GPGLL,3957.16457,N,07511.46097,W,015611.20,A,A*7C
946684890.963317$GPGLL,3957.16457,N,07511.46097,W,015611.20,A,A*7C
946684890.963439$GPGLL,3957.16457,N,07511.46097,W,015611.20,A,A*7C
946684890.963592$GPGLL,3957.16457,N,07511.46097,W,015611.20,A,A*7C
946684890.963836$GPGLL,3957.16457,N,07511.46097,W,015611.20,A,A*7C
946684890.963989$GPGLL,3957.16457,N,07511.46097,W,015611.20,A,A*7C
946684890.964141$GPGLL,3957.16457,N,07511.46097,W,015611.20,A,A*7C
946684890.964294$GPGLL,3957.16457,N,07511.46097,W,015611.20,A,A*7C
946684890.964416$GPGLL,3957.16457,N,07511.46097,W,015611.20,A,A*7C
946684890.964569$GPGLL,3957.16457,N,07511.46097,W,015611.20,A,A*7C
946684890.964813$GPGLL,3957.16457,N,07511.46097,W,015611.20,A,A*7C
946684891.135162$GPVTG,,T,,M,0.214,N,0.396,K,A*28
946684891.135375$GPVTG,,T,,M,0.214,N,0.396,K,A*28
946684891.135498$GPVTG,,T,,M,0.214,N,0.396,K,A*28
946684891.135650$GPVTG,,T,,M,0.214,N,0.396,K,A*28
946684891.135772$GPVTG,,T,,M,0.214,N,0.396,K,A*28
946684891.136016$GPVTG,,T,,M,0.214,N,0.396,K,A*28
946684891.136169$GPVTG,,T,,M,0.214,N,0.396,K,A*28
946684891.136322$GPVTG,,T,,M,0.214,N,0.396,K,A*28
946684891.136444$GPVTG,,T,,M,0.214,N,0.396,K,A*28
946684891.136566$GPVTG,,T,,M,0.214,N,0.396,K,A*28
946684891.136718$GPVTG,,T,,M,0.214,N,0.396,K,A*28
946684891.136840$GPVTG,,T,,M,0.214,N,0.396,K,A*28
946684891.137084$GPVTG,,T,,M,0.214,N,0.396,K,A*28
946684891.137237$GPVTG,,T,,M,0.214,N,0.396,K,A*28
946684891.137359$GPVTG,,T,,M,0.214,N,0.396,K,A*28
946684891.137481$GPVTG,,T,,M,0.214,N,0.396,K,A*28
946684891.137634$GPVTG,,T,,M,0.214,N,0.396,K,A*28
946684891.137756$GPVTG,,T,,M,0.214,N,0.396,K,A*28
946684891.351470$GPVTG,,T,,M,0.086,N,0.160,K,A*2A
946684891.351745$GPVTG,,T,,M,0.086,N,0.160,K,A*2A
946684891.351928$GPVTG,,T,,M,0.086,N,0.160,K,A*2A
946684891.352050$GPVTG,,T,,M,0.086,N,0.160,K,A*2A
946684891.353668$GPVTG,,T,,M,0.086,N,0.160,K,A*2A
946684891.353881$GPVTG,,T,,M,0.086,N,0.160,K,A*2A
946684891.354034$GPVTG,,T,,M,0.086,N,0.160,K,A*2A
946684891.354309$GPVTG,,T,,M,0.086,N,0.160,K,A*2A
946684891.354461$GPVTG,,T,,M,0.086,N,0.160,K,A*2A
946684891.354614$GPVTG,,T,,M,0.086,N,0.160,K,A*2A
946684891.354736$GPVTG,,T,,M,0.086,N,0.160,K,A*2A
946684891.354888$GPVTG,,T,,M,0.086,N,0.160,K,A*2A
946684891.357482$GPGGA,015611.60,3957.16463,N,07511.46098,W,1,06,1.35,29.0,M,-34.5,M,,*50
946684891.357727$GPGGA,015611.60,3957.16463,N,07511.46098,W,1,06,1.35,29.0,M,-34.5,M,,*50
946684891.357879$GPGGA,015611.60,3957.16463,N,07511.46098,W,1,06,1.35,29.0,M,-34.5,M,,*50
946684891.358032$GPGGA,015611.60,3957.16463,N,07511.46098,W,1,06,1.35,29.0,M,-34.5,M,,*50
946684891.358306$GPGGA,015611.60,3957.16463,N,07511.46098,W,1,06,1.35,29.0,M,-34.5,M,,*50
946684891.358489$GPGGA,015611.60,3957.16463,N,07511.46098,W,1,06,1.35,29.0,M,-34.5,M,,*50
946684891.358642$GPGGA,015611.60,3957.16463,N,07511.46098,W,1,06,1.35,29.0,M,-34.5,M,,*50
946684891.358795$GPGGA,015611.60,3957.16463,N,07511.46098,W,1,06,1.35,29.0,M,-34.5,M,,*50
946684891.358947$GPGGA,015611.60,3957.16463,N,07511.46098,W,1,06,1.35,29.0,M,-34.5,M,,*50
946684891.738006$GPVTG,,T,,M,0.121,N,0.224,K,A*25
946684891.738189$GPVTG,,T,,M,0.121,N,0.224,K,A*25
946684891.738342$GPVTG,,T,,M,0.121,N,0.224,K,A*25
946684891.738464$GPVTG,,T,,M,0.121,N,0.224,K,A*25
946684891.738616$GPVTG,,T,,M,0.121,N,0.224,K,A*25
946684891.738861$GPVTG,,T,,M,0.121,N,0.224,K,A*25
946684891.738983$GPVTG,,T,,M,0.121,N,0.224,K,A*25
946684891.739135$GPVTG,,T,,M,0.121,N,0.224,K,A*25
946684891.739257$GPVTG,,T,,M,0.121,N,0.224,K,A*25
946684891.739410$GPVTG,,T,,M,0.121,N,0.224,K,A*25
946684891.739532$GPVTG,,T,,M,0.121,N,0.224,K,A*25
946684891.739776$GPVTG,,T,,M,0.121,N,0.224,K,A*25
946684891.739929$GPVTG,,T,,M,0.121,N,0.224,K,A*25
946684891.740051$GPVTG,,T,,M,0.121,N,0.224,K,A*25
946684891.759063$GPGLL,3957.16469,N,07511.46099,W,015612.00,A,A*7E
946684891.759246$GPGLL,3957.16469,N,07511.46099,W,015612.00,A,A*7E
946684891.759490$GPGLL,3957.16469,N,07511.46099,W,015612.00,A,A*7E
946684891.759643$GPGLL,3957.16469,N,07511.46099,W,015612.00,A,A*7E
946684891.759918$GPGLL,3957.16469,N,07511.46099,W,015612.00,A,A*7E
946684891.760070$GPGLL,3957.16469,N,07511.46099,W,015612.00,A,A*7E
946684891.760223$GPGLL,3957.16469,N,07511.46099,W,015612.00,A,A*7E
946684891.760345$GPGLL,3957.16469,N,07511.46099,W,015612.00,A,A*7E
946684892.344818$GPVTG,,T,,M,0.129,N,0.238,K,A*20
946684892.345001$GPRMC,015612.60,A,3957.16482,N,07511.46100,W,0.129,,141212,,,A*6A
946684892.345153$GPRMC,015612.60,A,3957.16482,N,07511.46100,W,0.129,,141212,,,A*6A
946684892.345306$GPRMC,015612.60,A,3957.16482,N,07511.46100,W,0.129,,141212,,,A*6A
946684892.345581$GPRMC,015612.60,A,3957.16482,N,07511.46100,W,0.129,,141212,,,A*6A
946684892.345733$GPRMC,015612.60,A,3957.16482,N,07511.46100,W,0.129,,141212,,,A*6A
946684892.345886$GPRMC,015612.60,A,3957.16482,N,07511.46100,W,0.129,,141212,,,A*6A
946684892.346038$GPRMC,015612.60,A,3957.16482,N,07511.46100,W,0.129,,141212,,,A*6A
946684892.346191$GPRMC,015612.60,A,3957.16482,N,07511.46100,W,0.129,,141212,,,A*6A
946684892.346343$GPRMC,015612.60,A,3957.16482,N,07511.46100,W,0.129,,141212,,,A*6A
946684892.346588$GPRMC,015612.60,A,3957.16482,N,07511.46100,W,0.129,,141212,,,A*6A
946684892.346740$GPRMC,015612.60,A,3957.16482,N,07511.46100,W,0.129,,141212,,,A*6A
946684892.535003$GPRMC,015612.80,A,3957.16487,N,07511.46100,W,0.228,,141212,,,A*63
946684892.535186$GPRMC,015612.80,A,3957.16487,N,07511.46100,W,0.228,,141212,,,A*63
946684892.535339$GPRMC,015612.80,A,3957.16487,N,07511.46100,W,0.228,,141212,,,A*63
946684892.535491$GPRMC,015612.80,A,3957.16487,N,07511.46100,W,0.228,,141212,,,A*63
946684892.535644$GPRMC,015612.80,A,3957.16487,N,07511.46100,W,0.228,,141212,,,A*63
946684892.535919$GPRMC,015612.80,A,3957.16487,N,07511.46100,W,0.228,,141212,,,A*63
946684892.536071$GPRMC,015612.80,A,3957.16487,N,07511.46100,W,0.228,,141212,,,A*63
946684892.536224$GPRMC,015612.80,A,3957.16487,N,07511.46100,W,0.228,,141212,,,A*63
946684892.536376$GPRMC,015612.80,A,3957.16487,N,07511.46100,W,0.228,,141212,,,A*63
946684892.536529$GPRMC,015612.80,A,3957.16487,N,07511.46100,W,0.228,,141212,,,A*63
946684892.946441$GPGSV,2,1,08,01,15,292,38,12,25,046,42,14,65,057,34,18,,,22*4F
946684892.946624$GPGSV,2,1,08,01,15,292,38,12,25,046,42,14,65,057,34,18,,,22*4F
946684892.946777$GPGSV,2,1,08,01,15,292,38,12,25,046,42,14,65,057,34,18,,,22*4F
946684892.946929$GPGSV,2,1,08,01,15,292,38,12,25,046,42,14,65,057,34,18,,,22*4F
946684892.947082$GPGSV,2,1,08,01,15,292,38,12,25,046,42,14,65,057,34,18,,,22*4F
946684892.947326$GPGSV,2,1,08,01,15,292,38,12,25,046,42,14,65,057,34,18,,,22*4F
946684892.947509$GPGSV,2,1,08,01,15,292,38,12,25,046,42,14,65,057,34,18,,,22*4F
946684892.947662$GPGSV,2,1,08,01,15,292,38,12,25,046,42,14,65,057,34,18,,,22*4F
946684893.134887$GPRMC,015613.40,A,3957.16502,N,07511.46102,W,0.260,,141212,,,A*6C
946684893.135070$GPRMC,015613.40,A,3957.16502,N,07511.46102,W,0.260,,141212,,,A*6C
946684893.135253$GPRMC,015613.40,A,3957.16502,N,07511.46102,W,0.260,,141212,,,A*6C
946684893.135406$GPRMC,015613.40,A,3957.16502,N,07511.46102,W,0.260,,141212,,,A*6C
946684893.135650$GPRMC,015613.40,A,3957.16502,N,07511.46102,W,0.260,,141212,,,A*6C
946684893.135803$GPRMC,015613.40,A,3957.16502,N,07511.46102,W,0.260,,141212,,,A*6C
946684893.135955$GPRMC,015613.40,A,3957.16502,N,07511.46102,W,0.260,,141212,,,A*6C
946684893.136108$GPRMC,015613.40,A,3957.16502,N,07511.46102,W,0.260,,141212,,,A*6C
946684893.136260$GPRMC,015613.40,A,3957.16502,N,07511.46102,W,0.260,,141212,,,A*6C
946684893.545349$GPVTG,,T,,M,0.087,N,0.161,K,A*2A
946684893.545532$GPRMC,015613.80,A,3957.16511,N,07511.46102,W,0.087,,141212,,,A*69
946684893.545684$GPRMC,015613.80,A,3957.16511,N,07511.46102,W,0.087,,141212,,,A*69
946684893.545837$GPRMC,015613.80,A,3957.16511,N,07511.46102,W,0.087,,141212,,,A*69
946684893.545989$GPRMC,015613.80,A,3957.16511,N,07511.46102,W,0.087,,141212,,,A*69
946684893.546264$GPRMC,015613.80,A,3957.16511,N,07511.46102,W,0.087,,141212,,,A*69
946684893.546508$GPRMC,015613.80,A,3957.16511,N,07511.46102,W,0.087,,141212,,,A*69
946684893.546661$GPRMC,015613.80,A,3957.16511,N,07511.46102,W,0.087,,141212,,,A*69
946684893.546813$GPRMC,015613.80,A,3957.16511,N,07511.46102,W,0.087,,141212,,,A*69
946684893.546966$GPRMC,015613.80,A,3957.16511,N,07511.46102,W,0.087,,141212,,,A*69
946684893.547210$GPRMC,015613.80,A,3957.16511,N,07511.46102,W,0.087,,141212,,,A*69
946684893.547393$GPRMC,015613.80,A,3957.16511,N,07511.46102,W,0.087,,141212,,,A*69
946684893.757476$GPGSA,A,3,32,01,22,25,12,14,,,,,,,2.94,1.35,2.61*0E
946684893.757659$GPGSA,A,3,32,01,22,25,12,14,,,,,,,2.94,1.35,2.61*0E
946684893.757843$GPGSA,A,3,32,01,22,25,12,14,,,,,,,2.94,1.35,2.61*0E
946684893.757965$GPGSA,A,3,32,01,22,25,12,14,,,,,,,2.94,1.35,2.61*0E
946684893.758117$GPGSA,A,3,32,01,22,25,12,14,,,,,,,2.94,1.35,2.61*0E
946684893.758270$GPGSA,A,3,32,01,22,25,12,14,,,,,,,2.94,1.35,2.61*0E
946684893.758514$GPGSA,A,3,32,01,22,25,12,14,,,,,,,2.94,1.35,2.61*0E
946684893.758697$GPGSA,A,3,32,01,22,25,12,14,,,,,,,2.94,1.35,2.61*0E
946684893.944854$GPVTG,,T,,M,0.190,N,0.352,K,A*2F
946684893.945007$GPRMC,015614.20,A,3957.16519,N,07511.46103,W,0.190,,141212,,,A*6A
946684893.945190$GPRMC,015614.20,A,3957.16519,N,07511.46103,W,0.190,,141212,,,A*6A
946684893.945343$GPRMC,015614.20,A,3957.16519,N,07511.46103,W,0.190,,141212,,,A*6A
946684893.945465$GPRMC,015614.20,A,3957.16519,N,07511.46103,W,0.190,,141212,,,A*6A
946684893.945739$GPRMC,015614.20,A,3957.16519,N,07511.46103,W,0.190,,141212,,,A*6A
946684893.945892$GPRMC,015614.20,A,3957.16519,N,07511.46103,W,0.190,,141212,,,A*6A
946684893.946044$GPRMC,015614.20,A,3957.16519,N,07511.46103,W,0.190,,141212,,,A*6A
946684893.946197$GPRMC,015614.20,A,3957.16519,N,07511.46103,W,0.190,,141212,,,A*6A
946684893.946411$GPRMC,015614.20,A,3957.16519,N,07511.46103,W,0.190,,141212,,,A*6A
946684893.946655$GPRMC,015614.20,A,3957.16519,N,07511.46103,W,0.190,,141212,,,A*6A
946684893.946807$GPRMC,015614.20,A,3957.16519,N,07511.46103,W,0.190,,141212,,,A*6A
946684894.557556$GPGSA,A,3,32,01,22,25,12,14,,,,,,,2.93,1.35,2.61*09
946684894.557769$GPGSA,A,3,32,01,22,25,12,14,,,,,,,2.93,1.35,2.61*09
946684894.557922$GPGSA,A,3,32,01,22,25,12,14,,,,,,,2.93,1.35,2.61*09
946684894.558074$GPGSA,A,3,32,01,22,25,12,14,,,,,,,2.93,1.35,2.61*09
946684894.558227$GPGSA,A,3,32,01,22,25,12,14,,,,,,,2.93,1.35,2.61*09
946684894.558349$GPGSA,A,3,32,01,22,25,12,14,,,,,,,2.93,1.35,2.61*09
946684894.558624$GPGSA,A,3,32,01,22,25,12,14,,,,,,,2.93,1.35,2.61*09
946684894.558776$GPGSA,A,3,32,01,22,25,12,14,,,,,,,2.93,1.35,2.61*09
946684894.765014$GPVTG,,T,,M,0.173,N,0.321,K,A*26
946684894.765197$GPRMC,015615.00,A,3957.16539,N,07511.46104,W,0.173,,141212,,,A*61
946684894.765350$GPRMC,015615.00,A,3957.16539,N,07511.46104,W,0.173,,141212,,,A*61
946684894.765502$GPRMC,015615.00,A,3957.16539,N,07511.46104,W,0.173,,141212,,,A*61
946684894.765747$GPRMC,015615.00,A,3957.16539,N,07511.46104,W,0.173,,141212,,,A*61
946684894.765899$GPRMC,015615.00,A,3957.16539,N,07511.46104,W,0.173,,141212,,,A*61
946684894.766052$GPRMC,015615.00,A,3957.16539,N,07511.46104,W,0.173,,141212,,,A*61
946684894.766204$GPRMC,015615.00,A,3957.16539,N,07511.46104,W,0.173,,141212,,,A*61
946684894.766357$GPRMC,015615.00,A,3957.16539,N,07511.46104,W,0.173,,141212,,,A*61
946684894.766571$GPRMC,015615.00,A,3957.16539,N,07511.46104,W,0.173,,141212,,,A*61
946684894.766815$GPRMC,015615.00,A,3957.16539,N,07511.46104,W,0.173,,141212,,,A*61
946684894.766998$GPRMC,015615.00,A,3957.16539,N,07511.46104,W,0.173,,141212,,,A*61
946684894.777954$GPGSV,2,1,08,01,15,292,37,12,25,046,42,14,65,057,34,18,,,21*43
946684894.778167$GPGSV,2,1,08,01,15,292,37,12,25,046,42,14,65,057,34,18,,,21*43
946684894.778320$GPGSV,2,1,08,01,15,292,37,12,25,046,42,14,65,057,34,18,,,21*43
946684894.778472$GPGSV,2,1,08,01,15,292,37,12,25,046,42,14,65,057,34,18,,,21*43
946684894.778625$GPGSV,2,1,08,01,15,292,37,12,25,046,42,14,65,057,34,18,,,21*43
946684894.778900$GPGSV,2,1,08,01,15,292,37,12,25,046,42,14,65,057,34,18,,,21*43
946684894.779052$GPGSV,2,1,08,01,15,292,37,12,25,046,42,14,65,057,34,18,,,21*43
946684894.779388$GPGSV,2,1,08,01,15,292,37,12,25,046,42,14,65,057,34,18,,,21*43
946684894.779541$GPGSV,2,1,08,01,15,292,37,12,25,046,42,14,65,057,34,18,,,21*43
946684894.779815$GPGSV,2,1,08,01,15,292,37,12,25,046,42,14,65,057,34,18,,,21*43
946684894.947143$GPGGA,015615.20,3957.16546,N,07511.46104,W,1,06,1.35,29.8,M,-34.5,M,,*5A
946684894.947326$GPGGA,015615.20,3957.16546,N,07511.46104,W,1,06,1.35,29.8,M,-34.5,M,,*5A
946684894.947479$GPGGA,015615.20,3957.16546,N,07511.46104,W,1,06,1.35,29.8,M,-34.5,M,,*5A
946684894.947631$GPGGA,015615.20,3957.16546,N,07511.46104,W,1,06,1.35,29.8,M,-34.5,M,,*5A
946684894.947784$GPGGA,015615.20,3957.16546,N,07511.46104,W,1,06,1.35,29.8,M,-34.5,M,,*5A
946684894.948059$GPGGA,015615.20,3957.16546,N,07511.46104,W,1,06,1.35,29.8,M,-34.5,M,,*5A
946684894.948211$GPGGA,015615.20,3957.16546,N,07511.46104,W,1,06,1.35,29.8,M,-34.5,M,,*5A
946684895.561035$GPGLL,3957.16561,N,07511.46104,W,015615.80,A,A*7D
946684895.561218$GPGSV,3,3,09,32,33,311,42*44
946684895.561370$GPGSV,3,3,09,32,33,311,42*44
946684895.561492$GPGSV,3,3,09,32,33,311,42*44
946684895.561614$GPGSV,3,3,09,32,33,311,42*44
946684895.561859$GPGSV,3,3,09,32,33,311,42*44
946684895.561981$GPGSV,3,3,09,32,33,311,42*44
946684895.562133$GPGSV,3,3,09,32,33,311,42*44
946684895.562255$GPGSV,3,3,09,32,33,311,42*44
946684895.562377$GPGSV,3,3,09,32,33,311,42*44
946684895.562530$GPGSV,3,3,09,32,33,311,42*44
946684895.562652$GPGSV,3,3,09,32,33,311,42*44
946684895.562866$GPGSV,3,3,09,32,33,311,42*44
946684895.563018$GPGSV,3,3,09,32,33,311,42*44
946684895.563140$GPGSV,3,3,09,32,33,311,42*44
946684895.563293$GPGSV,3,3,09,32,33,311,42*44
946684895.563476$GPGSV,3,3,09,32,33,311,42*44
946684895.563629$GPGSV,3,3,09,32,33,311,42*44
946684895.563842$GPGSV,3,3,09,32,33,311,42*44
946684895.563995$GPGSV,3,3,09,32,33,311,42*44
946684895.564117$GPGSV,3,3,09,32,33,311,42*44
946684895.564239$GPGSV,3,3,09,32,33,311,42*44
946684895.749786$GPGSV,3,2,09,22,45,169,17,25,50,082,41,27,,,27,30,11,194,18*43
946684895.750061$GPGSV,3,2,09,22,45,169,17,25,50,082,41,27,,,27,30,11,194,18*43
946684895.750244$GPGSV,3,2,09,22,45,169,17,25,50,082,41,27,,,27,30,11,194,18*43
946684895.750396$GPGSV,3,2,09,22,45,169,17,25,50,082,41,27,,,27,30,11,194,18*43
946684895.750549$GPGSV,3,2,09,22,45,169,17,25,50,082,41,27,,,27,30,11,194,18*43
946684895.750701$GPGSV,3,2,09,22,45,169,17,25,50,082,41,27,,,27,30,11,194,18*43
946684895.750854$GPGSV,3,2,09,22,45,169,17,25,50,082,41,27,,,27,30,11,194,18*43
946684895.753723$GPGLL,3957.16565,N,07511.46103,W,015616.00,A,A*75
946684895.753906$GPGLL,3957.16565,N,07511.46103,W,015616.00,A,A*75
946684895.754180$GPGLL,3957.16565,N,07511.46103,W,015616.00,A,A*75
946684895.754333$GPGLL,3957.16565,N,07511.46103,W,015616.00,A,A*75
946684895.754486$GPGLL,3957.16565,N,07511.46103,W,015616.00,A,A*75
946684895.754608$GPGLL,3957.16565,N,07511.46103,W,015616.00,A,A*75
946684895.754760$GPGLL,3957.16565,N,07511.46103,W,015616.00,A,A*75
946684895.754913$GPGLL,3957.16565,N,07511.46103,W,015616.00,A,A*75
946684895.755157$GPGLL,3957.16565,N,07511.46103,W,015616.00,A,A*75
946684895.755310$GPGLL,3957.16565,N,07511.46103,W,015616.00,A,A*75
946684895.755432$GPGLL,3957.16565,N,07511.46103,W,015616.00,A,A*75
946684895.949493$GPGSV,3,3,09,32,33,311,42*44
946684895.949645$GPGSV,3,3,09,32,33,311,42*44
946684895.949798$GPGSV,3,3,09,32,33,311,42*44
946684895.949951$GPGSV,3,3,09,32,33,311,42*44
946684895.950073$GPGSV,3,3,09,32,33,311,42*44
946684895.950317$GPGSV,3,3,09,32,33,311,42*44
946684895.950469$GPGSV,3,3,09,32,33,311,42*44
946684895.950622$GPGSV,3,3,09,32,33,311,42*44
946684896.134796$GPRMC,015616.40,A,3957.16576,N,07511.46103,W,0.175,,141212,,,A*6C
946684896.134979$GPRMC,015616.40,A,3957.16576,N,07511.46103,W,0.175,,141212,,,A*6C
946684896.135131$GPRMC,015616.40,A,3957.16576,N,07511.46103,W,0.175,,141212,,,A*6C
946684896.135284$GPRMC,015616.40,A,3957.16576,N,07511.46103,W,0.175,,141212,,,A*6C
946684896.135559$GPRMC,015616.40,A,3957.16576,N,07511.46103,W,0.175,,141212,,,A*6C
946684896.135711$GPRMC,015616.40,A,3957.16576,N,07511.46103,W,0.175,,141212,,,A*6C
946684896.135864$GPRMC,015616.40,A,3957.16576,N,07511.46103,W,0.175,,141212,,,A*6C
946684896.136138$GPRMC,015616.40,A,3957.16576,N,07511.46103,W,0.175,,141212,,,A*6C
946684896.136291$GPRMC,015616.40,A,3957.16576,N,07511.46103,W,0.175,,141212,,,A*6C
946684896.335876$GPVTG,,T,,M,0.203,N,0.376,K,A*20
946684896.336059$GPVTG,,T,,M,0.203,N,0.376,K,A*20
946684896.336212$GPVTG,,T,,M,0.203,N,0.376,K,A*20
946684896.336334$GPVTG,,T,,M,0.203,N,0.376,K,A*20
946684896.336486$GPVTG,,T,,M,0.203,N,0.376,K,A*20
946684896.336608$GPVTG,,T,,M,0.203,N,0.376,K,A*20
946684896.336914$GPVTG,,T,,M,0.203,N,0.376,K,A*20
946684896.337066$GPVTG,,T,,M,0.203,N,0.376,K,A*20
946684896.350036$GPGSV,3,3,09,32,33,311,42*44
946684896.350189$GPGSV,3,3,09,32,33,311,42*44
946684896.350341$GPGSV,3,3,09,32,33,311,42*44
946684896.350463$GPGSV,3,3,09,32,33,311,42*44
946684896.350616$GPGSV,3,3,09,32,33,311,42*44
946684896.350860$GPGSV,3,3,09,32,33,311,42*44
946684896.350982$GPGSV,3,3,09,32,33,311,42*44
946684896.351135$GPGSV,3,3,09,32,33,311,42*44
946684896.351257$GPGSV,3,3,09,32,33,311,42*44
946684896.351409$GPGSV,3,3,09,32,33,311,42*44
946684896.351531$GPGSV,3,3,09,32,33,311,42*44
946684896.351654$GPGSV,3,3,09,32,33,311,42*44
946684896.351898$GPGSV,3,3,09,32,33,311,42*44
946684896.352050$GPGSV,3,3,09,32,33,311,42*44
946684896.352172$GPGSV,3,3,09,32,33,311,42*44
946684896.352325$GPGSV,3,3,09,32,33,311,42*44
946684896.352508$GPGSV,3,3,09,32,33,311,42*44
946684898.091461$GPGSA,A,3,32,01,22,25,12,14,,,,,,,2.93,1.35,2.61*09
946684898.091644$GPGSA,A,3,32,01,22,25,12,14,,,,,,,2.93,1.35,2.61*09
946684898.091766$GPGSA,A,3,32,01,22,25,12,14,,,,,,,2.93,1.35,2.61*09
946684898.091918$GPGSA,A,3,32,01,22,25,12,14,,,,,,,2.93,1.35,2.61*09
946684898.092071$GPGSA,A,3,32,01,22,25,12,14,,,,,,,2.93,1.35,2.61*09
946684898.092224$GPGSA,A,3,32,01,22,25,12,14,,,,,,,2.93,1.35,2.61*09
946684898.092346$GPGSA,A,3,32,01,22,25,12,14,,,,,,,2.93,1.35,2.61*09
946684898.092498$GPGSA,A,3,32,01,22,25,12,14,,,,,,,2.93,1.35,2.61*09
946684898.092651$GPGSA,A,3,32,01,22,25,12,14,,,,,,,2.93,1.35,2.61*09
946684899.678375$GPGSV,3,3,09,32,33,311,41*47
946684899.678527$GPGSV,3,2,09,22,45,169,15,25,50,082,41,27,,,28,30,11,194,18*4E
946684899.678680$GPGSV,3,2,09,22,45,169,15,25,50,082,41,27,,,28,30,11,194,18*4E
946684899.678833$GPGSV,3,2,09,22,45,169,15,25,50,082,41,27,,,28,30,11,194,18*4E
946684899.678985$GPGSV,3,2,09,22,45,169,15,25,50,082,41,27,,,28,30,11,194,18*4E
946684899.679138$GPGSV,3,2,09,22,45,169,15,25,50,082,41,27,,,28,30,11,194,18*4E
946684899.679290$GPGSV,3,2,09,22,45,169,15,25,50,082,41,27,,,28,30,11,194,18*4E
946684899.679412$GPGSV,3,2,09,22,45,169,15,25,50,082,41,27,,,28,30,11,194,18*4E
946684899.679565$GPGSV,3,2,09,22,45,169,15,25,50,082,41,27,,,28,30,11,194,18*4E
946684899.679718$GPGSV,3,2,09,22,45,169,15,25,50,082,41,27,,,28,30,11,194,18*4E
946684899.745513$GPVTG,,T,,M,0.108,N,0.200,K,A*28
946684899.745697$GPVTG,,T,,M,0.108,N,0.200,K,A*28
946684899.745849$GPVTG,,T,,M,0.108,N,0.200,K,A*28
946684899.745971$GPVTG,,T,,M,0.108,N,0.200,K,A*28
946684899.746124$GPVTG,,T,,M,0.108,N,0.200,K,A*28
946684899.746368$GPVTG,,T,,M,0.108,N,0.200,K,A*28
946684899.746520$GPVTG,,T,,M,0.108,N,0.200,K,A*28
946684899.746643$GPVTG,,T,,M,0.108,N,0.200,K,A*28
946684899.746795$GPVTG,,T,,M,0.108,N,0.200,K,A*28
946684899.761505$GPGSV,3,3,09,32,33,311,44*42
946684899.761657$GPGSV,3,3,09,32,33,311,44*42
946684899.761810$GPGSV,3,3,09,32,33,311,44*42
946684899.761932$GPGSV,3,3,09,32,33,311,44*42
946684899.762054$GPGSV,3,3,09,32,33,311,44*42
946684899.762298$GPGSV,3,3,09,32,33,311,44*42
946684899.762451$GPGSV,3,3,09,32,33,311,44*42
946684899.762573$GPGSV,3,3,09,32,33,311,44*42
946684899.762725$GPGSV,3,3,09,32,33,311,44*42
946684899.762847$GPGSV,3,3,09,32,33,311,44*42
946684899.762969$GPGSV,3,3,09,32,33,311,44*42
946684899.763122$GPGSV,3,3,09,32,33,311,44*42
946684899.763336$GPGSV,3,3,09,32,33,311,44*42
946684899.763488$GPGSV,3,3,09,32,33,311,44*42
946684899.763610$GPGSV,3,3,09,32,33,311,44*42
946684899.763732$GPGSV,3,3,09,32,33,311,44*42
946684899.763885$GPGSV,3,3,09,32,33,311,44*42
946684899.764007$GPGSV,3,3,09,32,33,311,44*42
946684899.764129$GPGSV,3,3,09,32,33,311,44*42
946684899.934722$GPRMC,015620.20,A,3957.16659,N,07511.46097,W,0.130,,141212,,,A*6C
946684899.934936$GPRMC,015620.20,A,3957.16659,N,07511.46097,W,0.130,,141212,,,A*6C
946684899.935089$GPRMC,015620.20,A,3957.16659,N,07511.46097,W,0.130,,141212,,,A*6C
946684899.935241$GPRMC,015620.20,A,3957.16659,N,07511.46097,W,0.130,,141212,,,A*6C
946684899.935394$GPRMC,015620.20,A,3957.16659,N,07511.46097,W,0.130,,141212,,,A*6C
946684899.935638$GPRMC,015620.20,A,3957.16659,N,07511.46097,W,0.130,,141212,,,A*6C
946684899.935791$GPRMC,015620.20,A,3957.16659,N,07511.46097,W,0.130,,141212,,,A*6C
946684899.935943$GPRMC,015620.20,A,3957.16659,N,07511.46097,W,0.130,,141212,,,A*6C
946684899.936096$GPRMC,015620.20,A,3957.16659,N,07511.46097,W,0.130,,141212,,,A*6C
946684900.352813$GPGLL,3957.16667,N,07511.46096,W,015620.60,A,A*7A
946684900.353118$GPGLL,3957.16667,N,07511.46096,W,015620.60,A,A*7A
946684900.353271$GPGLL,3957.16667,N,07511.46096,W,015620.60,A,A*7A
946684900.353424$GPGLL,3957.16667,N,07511.46096,W,015620.60,A,A*7A
946684900.353546$GPGLL,3957.16667,N,07511.46096,W,015620.60,A,A*7A
946684900.353698$GPGLL,3957.16667,N,07511.46096,W,015620.60,A,A*7A
946684900.353851$GPGLL,3957.16667,N,07511.46096,W,015620.60,A,A*7A
946684900.354064$GPGLL,3957.16667,N,07511.46096,W,015620.60,A,A*7A
946684900.354217$GPGLL,3957.16667,N,07511.46096,W,015620.60,A,A*7A
946684900.354370$GPGLL,3957.16667,N,07511.46096,W,015620.60,A,A*7A
946684900.354492$GPGLL,3957.16667,N,07511.46096,W,015620.60,A,A*7A
946684900.354644$GPGLL,3957.16667,N,07511.46096,W,015620.60,A,A*7A
946684900.354797$GPGLL,3957.16667,N,07511.46096,W,015620.60,A,A*7A
946684900.537384$GPGGA,015620.80,3957.16671,N,07511.46095,W,1,05,3.03,30.4,M,-34.5,M,,*58
946684900.537567$GPGGA,015620.80,3957.16671,N,07511.46095,W,1,05,3.03,30.4,M,-34.5,M,,*58
946684900.537719$GPGGA,015620.80,3957.16671,N,07511.46095,W,1,05,3.03,30.4,M,-34.5,M,,*58
946684900.537872$GPGGA,015620.80,3957.16671,N,07511.46095,W,1,05,3.03,30.4,M,-34.5,M,,*58
946684900.538055$GPGGA,015620.80,3957.16671,N,07511.46095,W,1,05,3.03,30.4,M,-34.5,M,,*58
946684900.538299$GPGGA,015620.80,3957.16671,N,07511.46095,W,1,05,3.03,30.4,M,-34.5,M,,*58
946684900.538482$GPGGA,015620.80,3957.16671,N,07511.46095,W,1,05,3.03,30.4,M,-34.5,M,,*58
946684900.737823$GPVTG,,T,,M,0.165,N,0.306,K,A*24
946684900.737976$GPVTG,,T,,M,0.165,N,0.306,K,A*24
946684900.738128$GPVTG,,T,,M,0.165,N,0.306,K,A*24
946684900.738250$GPVTG,,T,,M,0.165,N,0.306,K,A*24
946684900.738403$GPVTG,,T,,M,0.165,N,0.306,K,A*24
946684900.738647$GPVTG,,T,,M,0.165,N,0.306,K,A*24
946684900.738800$GPVTG,,T,,M,0.165,N,0.306,K,A*24
