946685746.168823$GPGSV,4,2,16,18,04,153,,20,11,318,,22,38,169,,25,49,072,25*77
946685746.169342$GPGSV,4,2,16,18,04,153,,20,11,318,,22,38,169,,25,49,072,25*77
946685746.169555$GPGSV,4,2,16,18,04,153,,20,11,318,,22,38,169,,25,49,072,25*77
946685746.169708$GPGSV,4,2,16,18,04,153,,20,11,318,,22,38,169,,25,49,072,25*77
946685746.169860$GPGSV,4,2,16,18,04,153,,20,11,318,,22,38,169,,25,49,072,25*77
946685746.170837$GPGSV,4,2,16,18,04,153,,20,11,318,,22,38,169,,25,49,072,25*77
946685746.171173$GPGSV,4,2,16,18,04,153,,20,11,318,,22,38,169,,25,49,072,25*77
946685746.173431$GPGSV,4,3,16,27,28,180,22,29,01,111,12,30,17,194,31,31,63,263,49*71
946685746.173675$GPGSV,4,3,16,27,28,180,22,29,01,111,12,30,17,194,31,31,63,263,49*71
946685746.173828$GPGSV,4,3,16,27,28,180,22,29,01,111,12,30,17,194,31,31,63,263,49*71
946685746.173980$GPGSV,4,3,16,27,28,180,22,29,01,111,12,30,17,194,31,31,63,263,49*71
946685746.174255$GPGSV,4,3,16,27,28,180,22,29,01,111,12,30,17,194,31,31,63,263,49*71
946685746.174407$GPGSV,4,3,16,27,28,180,22,29,01,111,12,30,17,194,31,31,63,263,49*71
946685746.174560$GPGSV,4,3,16,27,28,180,22,29,01,111,12,30,17,194,31,31,63,263,49*71
946685746.174713$GPGSV,4,3,16,27,28,180,22,29,01,111,12,30,17,194,31,31,63,263,49*71
946685746.174865$GPGSV,4,3,16,27,28,180,22,29,01,111,12,30,17,194,31,31,63,263,49*71
946685746.175109$GPGSV,4,3,16,27,28,180,22,29,01,111,12,30,17,194,31,31,63,263,49*71
946685746.363555$GPGSA,A,3,32,25,31,46,30,12,,,,,,,2.43,1.23,2.09*0A
946685746.363769$GPGSA,A,3,32,25,31,46,30,12,,,,,,,2.43,1.23,2.09*0A
946685746.363922$GPGSA,A,3,32,25,31,46,30,12,,,,,,,2.43,1.23,2.09*0A
946685746.364044$GPGSA,A,3,32,25,31,46,30,12,,,,,,,2.43,1.23,2.09*0A
946685746.364196$GPGSA,A,3,32,25,31,46,30,12,,,,,,,2.43,1.23,2.09*0A
946685746.364471$GPGSA,A,3,32,25,31,46,30,12,,,,,,,2.43,1.23,2.09*0A
946685746.364624$GPGSA,A,3,32,25,31,46,30,12,,,,,,,2.43,1.23,2.09*0A
946685746.364776$GPGSA,A,3,32,25,31,46,30,12,,,,,,,2.43,1.23,2.09*0A
946685746.364898$GPGSA,A,3,32,25,31,46,30,12,,,,,,,2.43,1.23,2.09*0A
946685746.365051$GPGSA,A,3,32,25,31,46,30,12,,,,,,,2.43,1.23,2.09*0A
946685746.563812$GPGSA,A,3,32,25,31,46,30,12,,,,,,,2.43,1.23,2.09*0A
946685746.563964$GPGSA,A,3,32,25,31,46,30,12,,,,,,,2.43,1.23,2.09*0A
946685746.564117$GPGSA,A,3,32,25,31,46,30,12,,,,,,,2.43,1.23,2.09*0A
946685746.564270$GPGSA,A,3,32,25,31,46,30,12,,,,,,,2.43,1.23,2.09*0A
946685746.564422$GPGSA,A,3,32,25,31,46,30,12,,,,,,,2.43,1.23,2.09*0A
946685746.564666$GPGSA,A,3,32,25,31,46,30,12,,,,,,,2.43,1.23,2.09*0A
946685746.564819$GPGSA,A,3,32,25,31,46,30,12,,,,,,,2.43,1.23,2.09*0A
946685746.564941$GPGSA,A,3,32,25,31,46,30,12,,,,,,,2.43,1.23,2.09*0A
946685746.565093$GPGSA,A,3,32,25,31,46,30,12,,,,,,,2.43,1.23,2.09*0A
946685746.565216$GPGSA,A,3,32,25,31,46,30,12,,,,,,,2.43,1.23,2.09*0A
946685746.565368$GPGSA,A,3,32,25,31,46,30,12,,,,,,,2.43,1.23,2.09*0A
946685746.565612$GPGSA,A,3,32,25,31,46,30,12,,,,,,,2.43,1.23,2.09*0A
946685746.565765$GPGSA,A,3,32,25,31,46,30,12,,,,,,,2.43,1.23,2.09*0A
946685746.565887$GPGSA,A,3,32,25,31,46,30,12,,,,,,,2.43,1.23,2.09*0A
946685746.566040$GPGSA,A,3,32,25,31,46,30,12,,,,,,,2.43,1.23,2.09*0A
946685746.780609$GPGSV,4,2,16,18,04,153,,20,11,318,23,22,38,169,,25,49,072,25*76
946685746.780914$GPGSV,4,2,16,18,04,153,,20,11,318,23,22,38,169,,25,49,072,25*76
946685746.781066$GPGSV,4,2,16,18,04,153,,20,11,318,23,22,38,169,,25,49,072,25*76
946685746.781219$GPGSV,4,2,16,18,04,153,,20,11,318,23,22,38,169,,25,49,072,25*76
946685746.781372$GPGSV,4,2,16,18,04,153,,20,11,318,23,22,38,169,,25,49,072,25*76
946685746.781524$GPGSV,4,2,16,18,04,153,,20,11,318,23,22,38,169,,25,49,072,25*76
946685746.781677$GPGSV,4,2,16,18,04,153,,20,11,318,23,22,38,169,,25,49,072,25*76
946685746.781921$GPGSV,4,2,16,18,04,153,,20,11,318,23,22,38,169,,25,49,072,25*76
946685746.782073$GPGSV,4,2,16,18,04,153,,20,11,318,23,22,38,169,,25,49,072,25*76
946685746.782287$GPGSV,4,2,16,18,04,153,,20,11,318,23,22,38,169,,25,49,072,25*76
946685746.782440$GPGSV,4,2,16,18,04,153,,20,11,318,23,22,38,169,,25,49,072,25*76
946685747.158508$GPRMC,021026.40,A,3957.08356,N,07511.55594,W,0.041,,141212,,,D*6E
946685747.158782$GPRMC,021026.40,A,3957.08356,N,07511.55594,W,0.041,,141212,,,D*6E
946685747.158966$GPRMC,021026.40,A,3957.08356,N,07511.55594,W,0.041,,141212,,,D*6E
946685747.159118$GPRMC,021026.40,A,3957.08356,N,07511.55594,W,0.041,,141212,,,D*6E
946685747.159393$GPRMC,021026.40,A,3957.08356,N,07511.55594,W,0.041,,141212,,,D*6E
946685747.159545$GPRMC,021026.40,A,3957.08356,N,07511.55594,W,0.041,,141212,,,D*6E
946685747.159698$GPRMC,021026.40,A,3957.08356,N,07511.55594,W,0.041,,141212,,,D*6E
946685747.159851$GPRMC,021026.40,A,3957.08356,N,07511.55594,W,0.041,,141212,,,D*6E
946685747.159973$GPRMC,021026.40,A,3957.08356,N,07511.55594,W,0.041,,141212,,,D*6E
946685747.358703$GPVTG,,T,,M,0.071,N,0.132,K,D*20
946685747.358886$GPVTG,,T,,M,0.071,N,0.132,K,D*20
946685747.359039$GPVTG,,T,,M,0.071,N,0.132,K,D*20
946685747.359191$GPVTG,,T,,M,0.071,N,0.132,K,D*20
946685747.359313$GPVTG,,T,,M,0.071,N,0.132,K,D*20
946685747.359558$GPVTG,,T,,M,0.071,N,0.132,K,D*20
946685747.359710$GPVTG,,T,,M,0.071,N,0.132,K,D*20
946685747.359863$GPVTG,,T,,M,0.071,N,0.132,K,D*20
946685747.585876$GPGLL,3957.08358,N,07511.55595,W,021026.80,A,D*74
946685747.586029$GPGLL,3957.08358,N,07511.55595,W,021026.80,A,D*74
946685747.586151$GPGLL,3957.08358,N,07511.55595,W,021026.80,A,D*74
946685747.586303$GPGLL,3957.08358,N,07511.55595,W,021026.80,A,D*74
946685747.586456$GPGLL,3957.08358,N,07511.55595,W,021026.80,A,D*74
946685747.586578$GPGLL,3957.08358,N,07511.55595,W,021026.80,A,D*74
946685747.586822$GPGLL,3957.08358,N,07511.55595,W,021026.80,A,D*74
946685747.587036$GPGLL,3957.08358,N,07511.55595,W,021026.80,A,D*74
946685747.587158$GPGLL,3957.08358,N,07511.55595,W,021026.80,A,D*74
946685747.587310$GPGLL,3957.08358,N,07511.55595,W,021026.80,A,D*74
946685747.587463$GPGLL,3957.08358,N,07511.55595,W,021026.80,A,D*74
946685747.587585$GPGLL,3957.08358,N,07511.55595,W,021026.80,A,D*74
946685747.784210$GPGSV,4,3,16,27,28,180,24,29,01,111,,30,17,194,32,31,63,263,50*7F
946685747.784393$GPGSV,4,3,16,27,28,180,24,29,01,111,,30,17,194,32,31,63,263,50*7F
946685747.784545$GPGSV,4,3,16,27,28,180,24,29,01,111,,30,17,194,32,31,63,263,50*7F
946685747.784698$GPGSV,4,3,16,27,28,180,24,29,01,111,,30,17,194,32,31,63,263,50*7F
946685747.784851$GPGSV,4,3,16,27,28,180,24,29,01,111,,30,17,194,32,31,63,263,50*7F
946685747.785125$GPGSV,4,3,16,27,28,180,24,29,01,111,,30,17,194,32,31,63,263,50*7F
946685747.785278$GPGSV,4,3,16,27,28,180,24,29,01,111,,30,17,194,32,31,63,263,50*7F
946685747.785430$GPGSV,4,3,16,27,28,180,24,29,01,111,,30,17,194,32,31,63,263,50*7F
946685747.785583$GPGSV,4,3,16,27,28,180,24,29,01,111,,30,17,194,32,31,63,263,50*7F
946685747.785736$GPGSV,4,3,16,27,28,180,24,29,01,111,,30,17,194,32,31,63,263,50*7F
946685747.958435$GPRMC,021027.20,A,3957.08359,N,07511.55596,W,0.027,,141212,,,D*64
946685747.958618$GPRMC,021027.20,A,3957.08359,N,07511.55596,W,0.027,,141212,,,D*64
946685747.958770$GPRMC,021027.20,A,3957.08359,N,07511.55596,W,0.027,,141212,,,D*64
946685747.958923$GPRMC,021027.20,A,3957.08359,N,07511.55596,W,0.027,,141212,,,D*64
946685747.959075$GPRMC,021027.20,A,3957.08359,N,07511.55596,W,0.027,,141212,,,D*64
946685747.959320$GPRMC,021027.20,A,3957.08359,N,07511.55596,W,0.027,,141212,,,D*64
946685747.959472$GPRMC,021027.20,A,3957.08359,N,07511.55596,W,0.027,,141212,,,D*64
946685747.959625$GPRMC,021027.20,A,3957.08359,N,07511.55596,W,0.027,,141212,,,D*64
946685747.959777$GPRMC,021027.20,A,3957.08359,N,07511.55596,W,0.027,,141212,,,D*64
946685748.158569$GPRMC,021027.40,A,3957.08360,N,07511.55597,W,0.016,,141212,,,D*6B
946685748.158782$GPRMC,021027.40,A,3957.08360,N,07511.55597,W,0.016,,141212,,,D*6B
946685748.158935$GPRMC,021027.40,A,3957.08360,N,07511.55597,W,0.016,,141212,,,D*6B
946685748.159088$GPRMC,021027.40,A,3957.08360,N,07511.55597,W,0.016,,141212,,,D*6B
946685748.159240$GPRMC,021027.40,A,3957.08360,N,07511.55597,W,0.016,,141212,,,D*6B
946685748.159484$GPRMC,021027.40,A,3957.08360,N,07511.55597,W,0.016,,141212,,,D*6B
946685748.159637$GPRMC,021027.40,A,3957.08360,N,07511.55597,W,0.016,,141212,,,D*6B
946685748.159790$GPRMC,021027.40,A,3957.08360,N,07511.55597,W,0.016,,141212,,,D*6B
946685748.160064$GPRMC,021027.40,A,3957.08360,N,07511.55597,W,0.016,,141212,,,D*6B
946685748.160247$GPRMC,021027.40,A,3957.08360,N,07511.55597,W,0.016,,141212,,,D*6B
946685748.184112$GPGSV,4,4,16,32,38,308,43,33,14,110,,46,40,213,41,51,33,224,35*78
946685748.184295$GPGSV,4,4,16,32,38,308,43,33,14,110,,46,40,213,41,51,33,224,35*78
946685748.184570$GPGSV,4,4,16,32,38,308,43,33,14,110,,46,40,213,41,51,33,224,35*78
946685748.184722$GPGSV,4,4,16,32,38,308,43,33,14,110,,46,40,213,41,51,33,224,35*78
946685748.184875$GPGSV,4,4,16,32,38,308,43,33,14,110,,46,40,213,41,51,33,224,35*78
946685748.185028$GPGSV,4,4,16,32,38,308,43,33,14,110,,46,40,213,41,51,33,224,35*78
946685748.185180$GPGSV,4,4,16,32,38,308,43,33,14,110,,46,40,213,41,51,33,224,35*78
946685748.185424$GPGSV,4,4,16,32,38,308,43,33,14,110,,46,40,213,41,51,33,224,35*78
946685748.185577$GPGSV,4,4,16,32,38,308,43,33,14,110,,46,40,213,41,51,33,224,35*78
946685748.185729$GPGSV,4,4,16,32,38,308,43,33,14,110,,46,40,213,41,51,33,224,35*78
946685748.185882$GPGSV,4,4,16,32,38,308,43,33,14,110,,46,40,213,41,51,33,224,35*78
946685748.186035$GPGSV,4,4,16,32,38,308,43,33,14,110,,46,40,213,41,51,33,224,35*78
946685748.358520$GPRMC,021027.60,A,3957.08360,N,07511.55597,W,0.003,,141212,,,D*6D
946685748.358795$GPRMC,021027.60,A,3957.08360,N,07511.55597,W,0.003,,141212,,,D*6D
946685748.358947$GPRMC,021027.60,A,3957.08360,N,07511.55597,W,0.003,,141212,,,D*6D
946685748.359100$GPRMC,021027.60,A,3957.08360,N,07511.55597,W,0.003,,141212,,,D*6D
946685748.359252$GPRMC,021027.60,A,3957.08360,N,07511.55597,W,0.003,,141212,,,D*6D
946685748.359405$GPRMC,021027.60,A,3957.08360,N,07511.55597,W,0.003,,141212,,,D*6D
946685748.359649$GPRMC,021027.60,A,3957.08360,N,07511.55597,W,0.003,,141212,,,D*6D
946685748.359802$GPRMC,021027.60,A,3957.08360,N,07511.55597,W,0.003,,141212,,,D*6D
946685748.359954$GPRMC,021027.60,A,3957.08360,N,07511.55597,W,0.003,,141212,,,D*6D
946685748.360107$GPRMC,021027.60,A,3957.08360,N,07511.55597,W,0.003,,141212,,,D*6D
946685748.371765$GPGSV,4,1,16,01,14,286,,11,01,268,,12,21,042,33,14,61,070,*7D
946685748.371948$GPGSV,4,1,16,01,14,286,,11,01,268,,12,21,042,33,14,61,070,*7D
946685748.372100$GPGSV,4,1,16,01,14,286,,11,01,268,,12,21,042,33,14,61,070,*7D
946685748.372253$GPGSV,4,1,16,01,14,286,,11,01,268,,12,21,042,33,14,61,070,*7D
946685748.372406$GPGSV,4,1,16,01,14,286,,11,01,268,,12,21,042,33,14,61,070,*7D
946685748.372680$GPGSV,4,1,16,01,14,286,,11,01,268,,12,21,042,33,14,61,070,*7D
946685748.372833$GPGSV,4,1,16,01,14,286,,11,01,268,,12,21,042,33,14,61,070,*7D
946685748.782897$GPGSV,4,3,16,27,28,180,25,29,01,111,,30,17,194,32,31,63,263,49*76
946685748.783172$GPGSV,4,3,16,27,28,180,25,29,01,111,,30,17,194,32,31,63,263,49*76
946685748.783325$GPGSV,4,3,16,27,28,180,25,29,01,111,,30,17,194,32,31,63,263,49*76
946685748.783477$GPGSV,4,3,16,27,28,180,25,29,01,111,,30,17,194,32,31,63,263,49*76
946685748.783630$GPGSV,4,3,16,27,28,180,25,29,01,111,,30,17,194,32,31,63,263,49*76
946685748.783782$GPGSV,4,3,16,27,28,180,25,29,01,111,,30,17,194,32,31,63,263,49*76
946685748.783935$GPGSV,4,3,16,27,28,180,25,29,01,111,,30,17,194,32,31,63,263,49*76
946685748.784179$GPGSV,4,3,16,27,28,180,25,29,01,111,,30,17,194,32,31,63,263,49*76
946685748.784332$GPGSV,4,3,16,27,28,180,25,29,01,111,,30,17,194,32,31,63,263,49*76
946685748.959106$GPGGA,021028.20,3957.08363,N,07511.55600,W,2,06,1.24,9.9,M,-34.5,M,,0000*6A
946685748.959411$GPGGA,021028.20,3957.08363,N,07511.55600,W,2,06,1.24,9.9,M,-34.5,M,,0000*6A
946685748.959564$GPGGA,021028.20,3957.08363,N,07511.55600,W,2,06,1.24,9.9,M,-34.5,M,,0000*6A
946685748.959716$GPGGA,021028.20,3957.08363,N,07511.55600,W,2,06,1.24,9.9,M,-34.5,M,,0000*6A
946685748.959869$GPGGA,021028.20,3957.08363,N,07511.55600,W,2,06,1.24,9.9,M,-34.5,M,,0000*6A
946685748.960021$GPGGA,021028.20,3957.08363,N,07511.55600,W,2,06,1.24,9.9,M,-34.5,M,,0000*6A
946685748.960174$GPGGA,021028.20,3957.08363,N,07511.55600,W,2,06,1.24,9.9,M,-34.5,M,,0000*6A
946685748.960449$GPGGA,021028.20,3957.08363,N,07511.55600,W,2,06,1.24,9.9,M,-34.5,M,,0000*6A
946685748.960601$GPGGA,021028.20,3957.08363,N,07511.55600,W,2,06,1.24,9.9,M,-34.5,M,,0000*6A
946685748.978576$GPGLL,3957.08363,N,07511.55600,W,021028.20,A,D*77
946685748.978759$GPGLL,3957.08363,N,07511.55600,W,021028.20,A,D*77
946685748.978912$GPGLL,3957.08363,N,07511.55600,W,021028.20,A,D*77
946685748.979064$GPGLL,3957.08363,N,07511.55600,W,021028.20,A,D*77
946685748.979187$GPGLL,3957.08363,N,07511.55600,W,021028.20,A,D*77
946685748.979461$GPGLL,3957.08363,N,07511.55600,W,021028.20,A,D*77
946685748.979583$GPGLL,3957.08363,N,07511.55600,W,021028.20,A,D*77
946685748.979736$GPGLL,3957.08363,N,07511.55600,W,021028.20,A,D*77
946685748.979888$GPGLL,3957.08363,N,07511.55600,W,021028.20,A,D*77
946685748.980010$GPGLL,3957.08363,N,07511.55600,W,021028.20,A,D*77
946685748.980163$GPGLL,3957.08363,N,07511.55600,W,021028.20,A,D*77
946685748.980407$GPGLL,3957.08363,N,07511.55600,W,021028.20,A,D*77
946685748.980529$GPGLL,3957.08363,N,07511.55600,W,021028.20,A,D*77
946685748.980682$GPGLL,3957.08363,N,07511.55600,W,021028.20,A,D*77
946685748.980834$GPGLL,3957.08363,N,07511.55600,W,021028.20,A,D*77
946685749.159240$GPVTG,,T,,M,0.027,N,0.051,K,D*27
946685749.159545$GPVTG,,T,,M,0.027,N,0.051,K,D*27
946685749.159698$GPVTG,,T,,M,0.027,N,0.051,K,D*27
946685749.159820$GPVTG,,T,,M,0.027,N,0.051,K,D*27
946685749.159973$GPVTG,,T,,M,0.027,N,0.051,K,D*27
946685749.160095$GPVTG,,T,,M,0.027,N,0.051,K,D*27
946685749.160247$GPVTG,,T,,M,0.027,N,0.051,K,D*27
946685749.160369$GPVTG,,T,,M,0.027,N,0.051,K,D*27
946685749.160614$GPVTG,,T,,M,0.027,N,0.051,K,D*27
946685749.160736$GPVTG,,T,,M,0.027,N,0.051,K,D*27
946685749.160888$GPVTG,,T,,M,0.027,N,0.051,K,D*27
946685749.161010$GPVTG,,T,,M,0.027,N,0.051,K,D*27
946685749.161163$GPVTG,,T,,M,0.027,N,0.051,K,D*27
946685749.161285$GPVTG,,T,,M,0.027,N,0.051,K,D*27
946685749.161407$GPVTG,,T,,M,0.027,N,0.051,K,D*27
946685749.161651$GPVTG,,T,,M,0.027,N,0.051,K,D*27
946685749.164306$GPGSA,A,3,32,25,31,46,30,12,,,,,,,2.43,1.24,2.09*0D
946685749.164581$GPGSA,A,3,32,25,31,46,30,12,,,,,,,2.43,1.24,2.09*0D
946685749.164764$GPGSA,A,3,32,25,31,46,30,12,,,,,,,2.43,1.24,2.09*0D
946685749.164886$GPGSA,A,3,32,25,31,46,30,12,,,,,,,2.43,1.24,2.09*0D
946685749.165100$GPGSA,A,3,32,25,31,46,30,12,,,,,,,2.43,1.24,2.09*0D
946685749.165252$GPGSA,A,3,32,25,31,46,30,12,,,,,,,2.43,1.24,2.09*0D
946685749.165405$GPGSA,A,3,32,25,31,46,30,12,,,,,,,2.43,1.24,2.09*0D
946685749.165649$GPGSA,A,3,32,25,31,46,30,12,,,,,,,2.43,1.24,2.09*0D
946685749.165802$GPGSA,A,3,32,25,31,46,30,12,,,,,,,2.43,1.24,2.09*0D
946685749.165924$GPGSA,A,3,32,25,31,46,30,12,,,,,,,2.43,1.24,2.09*0D
946685749.188018$GPGLL,3957.08364,N,07511.55600,W,021028.40,A,D*76
946685749.188171$GPGLL,3957.08364,N,07511.55600,W,021028.40,A,D*76
946685749.188323$GPGLL,3957.08364,N,07511.55600,W,021028.40,A,D*76
946685749.188629$GPGLL,3957.08364,N,07511.55600,W,021028.40,A,D*76
946685749.188781$GPGLL,3957.08364,N,07511.55600,W,021028.40,A,D*76
946685749.188934$GPGLL,3957.08364,N,07511.55600,W,021028.40,A,D*76
946685749.189086$GPGLL,3957.08364,N,07511.55600,W,021028.40,A,D*76
946685749.189208$GPGLL,3957.08364,N,07511.55600,W,021028.40,A,D*76
946685749.189361$GPGLL,3957.08364,N,07511.55600,W,021028.40,A,D*76
946685749.189605$GPGLL,3957.08364,N,07511.55600,W,021028.40,A,D*76
946685749.189758$GPGLL,3957.08364,N,07511.55600,W,021028.40,A,D*76
946685749.358734$GPRMC,021028.60,A,3957.08365,N,07511.55601,W,0.046,,141212,,,D*6A
946685749.358947$GPRMC,021028.60,A,3957.08365,N,07511.55601,W,0.046,,141212,,,D*6A
946685749.359100$GPRMC,021028.60,A,3957.08365,N,07511.55601,W,0.046,,141212,,,D*6A
946685749.359252$GPRMC,021028.60,A,3957.08365,N,07511.55601,W,0.046,,141212,,,D*6A
946685749.359405$GPRMC,021028.60,A,3957.08365,N,07511.55601,W,0.046,,141212,,,D*6A
946685749.359558$GPRMC,021028.60,A,3957.08365,N,07511.55601,W,0.046,,141212,,,D*6A
946685749.359802$GPRMC,021028.60,A,3957.08365,N,07511.55601,W,0.046,,141212,,,D*6A
946685749.359954$GPRMC,021028.60,A,3957.08365,N,07511.55601,W,0.046,,141212,,,D*6A
946685749.360107$GPRMC,021028.60,A,3957.08365,N,07511.55601,W,0.046,,141212,,,D*6A
946685749.360321$GPRMC,021028.60,A,3957.08365,N,07511.55601,W,0.046,,141212,,,D*6A
946685749.360565$GPRMC,021028.60,A,3957.08365,N,07511.55601,W,0.046,,141212,,,D*6A
946685749.385009$GPGLL,3957.08365,N,07511.55601,W,021028.60,A,D*74
946685749.385223$GPGLL,3957.08365,N,07511.55601,W,021028.60,A,D*74
946685749.385375$GPGLL,3957.08365,N,07511.55601,W,021028.60,A,D*74
946685749.385528$GPGLL,3957.08365,N,07511.55601,W,021028.60,A,D*74
946685749.385650$GPGLL,3957.08365,N,07511.55601,W,021028.60,A,D*74
946685749.385925$GPGLL,3957.08365,N,07511.55601,W,021028.60,A,D*74
946685749.386077$GPGLL,3957.08365,N,07511.55601,W,021028.60,A,D*74
946685749.584350$GPGSV,4,3,16,27,28,180,25,29,01,111,,30,17,194,33,31,63,263,49*77
946685749.584533$GPGSV,4,3,16,27,28,180,25,29,01,111,,30,17,194,33,31,63,263,49*77
946685749.584686$GPGSV,4,3,16,27,28,180,25,29,01,111,,30,17,194,33,31,63,263,49*77
946685749.584838$GPGSV,4,3,16,27,28,180,25,29,01,111,,30,17,194,33,31,63,263,49*77
946685749.585083$GPGSV,4,3,16,27,28,180,25,29,01,111,,30,17,194,33,31,63,263,49*77
946685749.585235$GPGSV,4,3,16,27,28,180,25,29,01,111,,30,17,194,33,31,63,263,49*77
946685749.585388$GPGSV,4,3,16,27,28,180,25,29,01,111,,30,17,194,33,31,63,263,49*77
946685749.585540$GPGSV,4,3,16,27,28,180,25,29,01,111,,30,17,194,33,31,63,263,49*77
946685749.585693$GPGSV,4,3,16,27,28,180,25,29,01,111,,30,17,194,33,31,63,263,49*77
946685749.585845$GPGSV,4,3,16,27,28,180,25,29,01,111,,30,17,194,33,31,63,263,49*77
946685749.758422$GPRMC,021029.00,A,3957.08366,N,07511.55603,W,0.034,,141212,,,D*69
946685749.758605$GPRMC,021029.00,A,3957.08366,N,07511.55603,W,0.034,,141212,,,D*69
946685749.758819$GPRMC,021029.00,A,3957.08366,N,07511.55603,W,0.034,,141212,,,D*69
946685749.758972$GPRMC,021029.00,A,3957.08366,N,07511.55603,W,0.034,,141212,,,D*69
946685749.759216$GPRMC,021029.00,A,3957.08366,N,07511.55603,W,0.034,,141212,,,D*69
946685749.759399$GPRMC,021029.00,A,3957.08366,N,07511.55603,W,0.034,,141212,,,D*69
946685749.759552$GPRMC,021029.00,A,3957.08366,N,07511.55603,W,0.034,,141212,,,D*69
946685749.759704$GPRMC,021029.00,A,3957.08366,N,07511.55603,W,0.034,,141212,,,D*69
946685749.759857$GPRMC,021029.00,A,3957.08366,N,07511.55603,W,0.034,,141212,,,D*69
946685749.760009$GPRMC,021029.00,A,3957.08366,N,07511.55603,W,0.034,,141212,,,D*69
946685749.961791$GPVTG,,T,,M,0.029,N,0.054,K,D*2C
946685749.962005$GPVTG,,T,,M,0.029,N,0.054,K,D*2C
946685749.962158$GPVTG,,T,,M,0.029,N,0.054,K,D*2C
946685749.962310$GPVTG,,T,,M,0.029,N,0.054,K,D*2C
946685749.962554$GPVTG,,T,,M,0.029,N,0.054,K,D*2C
946685749.962677$GPVTG,,T,,M,0.029,N,0.054,K,D*2C
946685749.962829$GPVTG,,T,,M,0.029,N,0.054,K,D*2C
946685749.962951$GPVTG,,T,,M,0.029,N,0.054,K,D*2C
946685749.963104$GPVTG,,T,,M,0.029,N,0.054,K,D*2C
946685749.963226$GPVTG,,T,,M,0.029,N,0.054,K,D*2C
946685749.963470$GPVTG,,T,,M,0.029,N,0.054,K,D*2C
946685749.963592$GPVTG,,T,,M,0.029,N,0.054,K,D*2C
946685749.963745$GPVTG,,T,,M,0.029,N,0.054,K,D*2C
946685749.963867$GPVTG,,T,,M,0.029,N,0.054,K,D*2C
946685749.964019$GPVTG,,T,,M,0.029,N,0.054,K,D*2C
946685749.982635$GPGSV,4,3,16,27,28,180,25,29,01,111,,30,17,194,32,31,63,263,49*76
946685749.982818$GPGSV,4,3,16,27,28,180,25,29,01,111,,30,17,194,32,31,63,263,49*76
946685749.983001$GPGSV,4,3,16,27,28,180,25,29,01,111,,30,17,194,32,31,63,263,49*76
946685749.983154$GPGSV,4,3,16,27,28,180,25,29,01,111,,30,17,194,32,31,63,263,49*76
946685749.983306$GPGSV,4,3,16,27,28,180,25,29,01,111,,30,17,194,32,31,63,263,49*76
946685749.983551$GPGSV,4,3,16,27,28,180,25,29,01,111,,30,17,194,32,31,63,263,49*76
946685749.983703$GPGSV,4,3,16,27,28,180,25,29,01,111,,30,17,194,32,31,63,263,49*76
946685749.988708$GPGLL,3957.08366,N,07511.55604,W,021029.20,A,D*77
946685749.988861$GPGLL,3957.08366,N,07511.55604,W,021029.20,A,D*77
946685749.989013$GPGLL,3957.08366,N,07511.55604,W,021029.20,A,D*77
946685749.989166$GPGLL,3957.08366,N,07511.55604,W,021029.20,A,D*77
946685749.989318$GPGLL,3957.08366,N,07511.55604,W,021029.20,A,D*77
946685749.989532$GPGLL,3957.08366,N,07511.55604,W,021029.20,A,D*77
946685749.989685$GPGLL,3957.08366,N,07511.55604,W,021029.20,A,D*77
946685749.989837$GPGLL,3957.08366,N,07511.55604,W,021029.20,A,D*77
946685749.990081$GPGLL,3957.08366,N,07511.55604,W,021029.20,A,D*77
946685749.990234$GPGLL,3957.08366,N,07511.55604,W,021029.20,A,D*77
946685749.990386$GPGLL,3957.08366,N,07511.55604,W,021029.20,A,D*77
946685749.990631$GPGLL,3957.08366,N,07511.55604,W,021029.20,A,D*77
946685749.990783$GPGLL,3957.08366,N,07511.55604,W,021029.20,A,D*77
946685749.990905$GPGLL,3957.08366,N,07511.55604,W,021029.20,A,D*77
946685749.991058$GPGLL,3957.08366,N,07511.55604,W,021029.20,A,D*77
946685750.160003$GPGGA,021029.40,3957.08367,N,07511.55604,W,2,06,1.24,9.7,M,-34.5,M,,0000*63
946685750.160186$GPGGA,021029.40,3957.08367,N,07511.55604,W,2,06,1.24,9.7,M,-34.5,M,,0000*63
946685750.160339$GPGGA,021029.40,3957.08367,N,07511.55604,W,2,06,1.24,9.7,M,-34.5,M,,0000*63
946685750.160491$GPGGA,021029.40,3957.08367,N,07511.55604,W,2,06,1.24,9.7,M,-34.5,M,,0000*63
946685750.160766$GPGGA,021029.40,3957.08367,N,07511.55604,W,2,06,1.24,9.7,M,-34.5,M,,0000*63
946685750.160919$GPGGA,021029.40,3957.08367,N,07511.55604,W,2,06,1.24,9.7,M,-34.5,M,,0000*63
946685750.161071$GPGGA,021029.40,3957.08367,N,07511.55604,W,2,06,1.24,9.7,M,-34.5,M,,0000*63
946685750.161224$GPGGA,021029.40,3957.08367,N,07511.55604,W,2,06,1.24,9.7,M,-34.5,M,,0000*63
946685750.161376$GPGGA,021029.40,3957.08367,N,07511.55604,W,2,06,1.24,9.7,M,-34.5,M,,0000*63
946685750.161529$GPGGA,021029.40,3957.08367,N,07511.55604,W,2,06,1.24,9.7,M,-34.5,M,,0000*63
946685750.173034$GPGSV,4,3,16,27,28,180,26,29,01,111,,30,17,194,32,31,63,263,49*75
946685750.173217$GPGSV,4,3,16,27,28,180,26,29,01,111,,30,17,194,32,31,63,263,49*75
946685750.173370$GPGSV,4,3,16,27,28,180,26,29,01,111,,30,17,194,32,31,63,263,49*75
946685750.173522$GPGSV,4,3,16,27,28,180,26,29,01,111,,30,17,194,32,31,63,263,49*75
946685750.173797$GPGSV,4,3,16,27,28,180,26,29,01,111,,30,17,194,32,31,63,263,49*75
946685750.173950$GPGSV,4,3,16,27,28,180,26,29,01,111,,30,17,194,32,31,63,263,49*75
946685750.364196$GPGSA,A,3,32,25,31,46,30,12,14,,,,,,2.43,1.24,2.09*08
946685750.364379$GPGSA,A,3,32,25,31,46,30,12,14,,,,,,2.43,1.24,2.09*08
946685750.364532$GPGSA,A,3,32,25,31,46,30,12,14,,,,,,2.43,1.24,2.09*08
946685750.364654$GPGSA,A,3,32,25,31,46,30,12,14,,,,,,2.43,1.24,2.09*08
946685750.364807$GPGSA,A,3,32,25,31,46,30,12,14,,,,,,2.43,1.24,2.09*08
946685750.365051$GPGSA,A,3,32,25,31,46,30,12,14,,,,,,2.43,1.24,2.09*08
946685750.365203$GPGSA,A,3,32,25,31,46,30,12,14,,,,,,2.43,1.24,2.09*08
946685750.365356$GPGSA,A,3,32,25,31,46,30,12,14,,,,,,2.43,1.24,2.09*08
946685750.365478$GPGSA,A,3,32,25,31,46,30,12,14,,,,,,2.43,1.24,2.09*08
946685750.365631$GPGSA,A,3,32,25,31,46,30,12,14,,,,,,2.43,1.24,2.09*08
946685750.365783$GPGSA,A,3,32,25,31,46,30,12,14,,,,,,2.43,1.24,2.09*08
946685750.365997$GPGSA,A,3,32,25,31,46,30,12,14,,,,,,2.43,1.24,2.09*08
946685750.366149$GPGSA,A,3,32,25,31,46,30,12,14,,,,,,2.43,1.24,2.09*08
946685750.366302$GPGSA,A,3,32,25,31,46,30,12,14,,,,,,2.43,1.24,2.09*08
946685750.558502$GPRMC,021029.80,A,3957.08367,N,07511.55605,W,0.023,,141212,,,D*60
946685750.558685$GPRMC,021029.80,A,3957.08367,N,07511.55605,W,0.023,,141212,,,D*60
946685750.558837$GPRMC,021029.80,A,3957.08367,N,07511.55605,W,0.023,,141212,,,D*60
946685750.558990$GPRMC,021029.80,A,3957.08367,N,07511.55605,W,0.023,,141212,,,D*60
946685750.559234$GPRMC,021029.80,A,3957.08367,N,07511.55605,W,0.023,,141212,,,D*60
946685750.559417$GPRMC,021029.80,A,3957.08367,N,07511.55605,W,0.023,,141212,,,D*60
946685750.559570$GPRMC,021029.80,A,3957.08367,N,07511.55605,W,0.023,,141212,,,D*60
946685750.559722$GPRMC,021029.80,A,3957.08367,N,07511.55605,W,0.023,,141212,,,D*60
946685750.559844$GPRMC,021029.80,A,3957.08367,N,07511.55605,W,0.023,,141212,,,D*60
946685750.565399$GPGSA,A,3,32,25,31,46,30,12,14,,,,,,2.43,1.24,2.09*08
946685750.565704$GPGSA,A,3,32,25,31,46,30,12,14,,,,,,2.43,1.24,2.09*08
946685750.565887$GPGSA,A,3,32,25,31,46,30,12,14,,,,,,2.43,1.24,2.09*08
946685750.566040$GPGSA,A,3,32,25,31,46,30,12,14,,,,,,2.43,1.24,2.09*08
946685750.567413$GPGSA,A,3,32,25,31,46,30,12,14,,,,,,2.43,1.24,2.09*08
946685750.567626$GPGSA,A,3,32,25,31,46,30,12,14,,,,,,2.43,1.24,2.09*08
946685750.567779$GPGSA,A,3,32,25,31,46,30,12,14,,,,,,2.43,1.24,2.09*08
946685750.568054$GPGSA,A,3,32,25,31,46,30,12,14,,,,,,2.43,1.24,2.09*08
946685750.584014$GPGSV,4,4,16,32,38,308,42,33,14,110,,46,40,213,40,51,33,224,34*79
946685750.584442$GPGSV,4,4,16,32,38,308,42,33,14,110,,46,40,213,40,51,33,224,34*79
946685750.584625$GPGSV,4,4,16,32,38,308,42,33,14,110,,46,40,213,40,51,33,224,34*79
946685750.584777$GPGSV,4,4,16,32,38,308,42,33,14,110,,46,40,213,40,51,33,224,34*79
946685750.584930$GPGSV,4,4,16,32,38,308,42,33,14,110,,46,40,213,40,51,33,224,34*79
946685750.585083$GPGSV,4,4,16,32,38,308,42,33,14,110,,46,40,213,40,51,33,224,34*79
946685750.585357$GPGSV,4,4,16,32,38,308,42,33,14,110,,46,40,213,40,51,33,224,34*79
946685750.585510$GPGSV,4,4,16,32,38,308,42,33,14,110,,46,40,213,40,51,33,224,34*79
946685750.585662$GPGSV,4,4,16,32,38,308,42,33,14,110,,46,40,213,40,51,33,224,34*79
946685750.761718$GPVTG,,T,,M,0.015,N,0.029,K,D*29
946685750.761871$GPVTG,,T,,M,0.015,N,0.029,K,D*29
946685750.762023$GPVTG,,T,,M,0.015,N,0.029,K,D*29
946685750.762176$GPVTG,,T,,M,0.015,N,0.029,K,D*29
946685750.762298$GPVTG,,T,,M,0.015,N,0.029,K,D*29
946685750.762542$GPVTG,,T,,M,0.015,N,0.029,K,D*29
946685750.762695$GPVTG,,T,,M,0.015,N,0.029,K,D*29
946685750.762817$GPVTG,,T,,M,0.015,N,0.029,K,D*29
946685750.762969$GPVTG,,T,,M,0.015,N,0.029,K,D*29
946685750.763092$GPVTG,,T,,M,0.015,N,0.029,K,D*29
946685750.763214$GPVTG,,T,,M,0.015,N,0.029,K,D*29
946685750.763458$GPVTG,,T,,M,0.015,N,0.029,K,D*29
946685750.763610$GPVTG,,T,,M,0.015,N,0.029,K,D*29
946685750.763732$GPVTG,,T,,M,0.015,N,0.029,K,D*29
946685750.763854$GPVTG,,T,,M,0.015,N,0.029,K,D*29
946685750.983001$GPGSV,4,3,16,27,28,180,26,29,01,111,,30,17,194,33,31,63,263,49*74
946685750.983184$GPGSV,4,3,16,27,28,180,26,29,01,111,,30,17,194,33,31,63,263,49*74
946685750.983337$GPGSV,4,3,16,27,28,180,26,29,01,111,,30,17,194,33,31,63,263,49*74
946685750.983489$GPGSV,4,3,16,27,28,180,26,29,01,111,,30,17,194,33,31,63,263,49*74
946685750.983734$GPGSV,4,3,16,27,28,180,26,29,01,111,,30,17,194,33,31,63,263,49*74
946685750.983917$GPGSV,4,3,16,27,28,180,26,29,01,111,,30,17,194,33,31,63,263,49*74
946685750.984069$GPGSV,4,3,16,27,28,180,26,29,01,111,,30,17,194,33,31,63,263,49*74
946685751.182128$GPGSV,4,3,16,27,28,180,26,29,01,111,,30,17,194,33,31,63,263,49*74
946685751.182312$GPGSV,4,3,16,27,28,180,26,29,01,111,,30,17,194,33,31,63,263,49*74
946685751.182464$GPGSV,4,3,16,27,28,180,26,29,01,111,,30,17,194,33,31,63,263,49*74
946685751.182617$GPGSV,4,3,16,27,28,180,26,29,01,111,,30,17,194,33,31,63,263,49*74
946685751.182769$GPGSV,4,3,16,27,28,180,26,29,01,111,,30,17,194,33,31,63,263,49*74
946685751.183044$GPGSV,4,3,16,27,28,180,26,29,01,111,,30,17,194,33,31,63,263,49*74
946685751.183197$GPGSV,4,3,16,27,28,180,26,29,01,111,,30,17,194,33,31,63,263,49*74
946685751.183349$GPGSV,4,3,16,27,28,180,26,29,01,111,,30,17,194,33,31,63,263,49*74
946685751.183502$GPGSV,4,3,16,27,28,180,26,29,01,111,,30,17,194,33,31,63,263,49*74
946685751.559204$GPVTG,,T,,M,0.037,N,0.068,K,D*2C
946685751.559478$GPVTG,,T,,M,0.037,N,0.068,K,D*2C
946685751.559631$GPVTG,,T,,M,0.037,N,0.068,K,D*2C
946685751.559783$GPVTG,,T,,M,0.037,N,0.068,K,D*2C
946685751.559906$GPVTG,,T,,M,0.037,N,0.068,K,D*2C
946685751.560058$GPVTG,,T,,M,0.037,N,0.068,K,D*2C
946685751.560180$GPVTG,,T,,M,0.037,N,0.068,K,D*2C
946685751.560424$GPVTG,,T,,M,0.037,N,0.068,K,D*2C
946685751.977966$GPGGA,021031.20,3957.08371,N,07511.55611,W,2,08,1.21,9.4,M,-34.5,M,,0000*67
946685751.978149$GPGGA,021031.20,3957.08371,N,07511.55611,W,2,08,1.21,9.4,M,-34.5,M,,0000*67
946685751.978302$GPGGA,021031.20,3957.08371,N,07511.55611,W,2,08,1.21,9.4,M,-34.5,M,,0000*67
946685751.978454$GPGGA,021031.20,3957.08371,N,07511.55611,W,2,08,1.21,9.4,M,-34.5,M,,0000*67
946685751.978607$GPGGA,021031.20,3957.08371,N,07511.55611,W,2,08,1.21,9.4,M,-34.5,M,,0000*67
946685751.978881$GPGGA,021031.20,3957.08371,N,07511.55611,W,2,08,1.21,9.4,M,-34.5,M,,0000*67
946685751.979034$GPGGA,021031.20,3957.08371,N,07511.55611,W,2,08,1.21,9.4,M,-34.5,M,,0000*67
946685751.979187$GPGGA,021031.20,3957.08371,N,07511.55611,W,2,08,1.21,9.4,M,-34.5,M,,0000*67
946685752.162261$GPVTG,,T,,M,0.043,N,0.080,K,D*29
946685752.162536$GPVTG,,T,,M,0.043,N,0.080,K,D*29
946685752.162689$GPVTG,,T,,M,0.043,N,0.080,K,D*29
946685752.162841$GPVTG,,T,,M,0.043,N,0.080,K,D*29
946685752.163055$GPVTG,,T,,M,0.043,N,0.080,K,D*29
946685752.163208$GPVTG,,T,,M,0.043,N,0.080,K,D*29
946685752.163360$GPVTG,,T,,M,0.043,N,0.080,K,D*29
946685752.163482$GPVTG,,T,,M,0.043,N,0.080,K,D*29
946685752.163604$GPVTG,,T,,M,0.043,N,0.080,K,D*29
946685752.163757$GPVTG,,T,,M,0.043,N,0.080,K,D*29
946685752.163879$GPVTG,,T,,M,0.043,N,0.080,K,D*29
946685752.164123$GPVTG,,T,,M,0.043,N,0.080,K,D*29
946685752.164245$GPVTG,,T,,M,0.043,N,0.080,K,D*29
946685752.164398$GPVTG,,T,,M,0.043,N,0.080,K,D*29
946685752.164520$GPVTG,,T,,M,0.043,N,0.080,K,D*29
946685752.164672$GPVTG,,T,,M,0.043,N,0.080,K,D*29
946685752.164794$GPVTG,,T,,M,0.043,N,0.080,K,D*29
946685752.165069$GPVTG,,T,,M,0.043,N,0.080,K,D*29
946685752.165222$GPVTG,,T,,M,0.043,N,0.080,K,D*29
946685752.165374$GPVTG,,T,,M,0.043,N,0.080,K,D*29
946685752.168090$GPGGA,021031.40,3957.08372,N,07511.55613,W,2,07,1.21,9.3,M,-34.5,M,,0000*68
946685752.168304$GPGGA,021031.40,3957.08372,N,07511.55613,W,2,07,1.21,9.3,M,-34.5,M,,0000*68
946685752.168457$GPGGA,021031.40,3957.08372,N,07511.55613,W,2,07,1.21,9.3,M,-34.5,M,,0000*68
946685752.168609$GPGGA,021031.40,3957.08372,N,07511.55613,W,2,07,1.21,9.3,M,-34.5,M,,0000*68
946685752.168762$GPGGA,021031.40,3957.08372,N,07511.55613,W,2,07,1.21,9.3,M,-34.5,M,,0000*68
946685752.168914$GPGGA,021031.40,3957.08372,N,07511.55613,W,2,07,1.21,9.3,M,-34.5,M,,0000*68
946685752.169189$GPGGA,021031.40,3957.08372,N,07511.55613,W,2,07,1.21,9.3,M,-34.5,M,,0000*68
946685752.169342$GPGGA,021031.40,3957.08372,N,07511.55613,W,2,07,1.21,9.3,M,-34.5,M,,0000*68
946685752.169494$GPGGA,021031.40,3957.08372,N,07511.55613,W,2,07,1.21,9.3,M,-34.5,M,,0000*68
946685752.186279$GPGSV,4,4,16,32,38,308,42,33,14,110,,46,40,213,40,51,33,224,34*79
946685752.186462$GPGSV,4,4,16,32,38,308,42,33,14,110,,46,40,213,40,51,33,224,34*79
946685752.186614$GPGSV,4,4,16,32,38,308,42,33,14,110,,46,40,213,40,51,33,224,34*79
946685752.186767$GPGSV,4,4,16,32,38,308,42,33,14,110,,46,40,213,40,51,33,224,34*79
946685752.186920$GPGSV,4,4,16,32,38,308,42,33,14,110,,46,40,213,40,51,33,224,34*79
946685752.187194$GPGSV,4,4,16,32,38,308,42,33,14,110,,46,40,213,40,51,33,224,34*79
946685752.384063$GPGSV,4,3,16,27,28,180,26,29,01,111,,30,17,194,33,31,63,263,49*74
946685752.384399$GPGSV,4,3,16,27,28,180,26,29,01,111,,30,17,194,33,31,63,263,49*74
946685752.384582$GPGSV,4,3,16,27,28,180,26,29,01,111,,30,17,194,33,31,63,263,49*74
946685752.384735$GPGSV,4,3,16,27,28,180,26,29,01,111,,30,17,194,33,31,63,263,49*74
946685752.384887$GPGSV,4,3,16,27,28,180,26,29,01,111,,30,17,194,33,31,63,263,49*74
946685752.385040$GPGSV,4,3,16,27,28,180,26,29,01,111,,30,17,194,33,31,63,263,49*74
946685752.385314$GPGSV,4,3,16,27,28,180,26,29,01,111,,30,17,194,33,31,63,263,49*74
946685752.385467$GPGSV,4,3,16,27,28,180,26,29,01,111,,30,17,194,33,31,63,263,49*74
946685752.385620$GPGSV,4,3,16,27,28,180,26,29,01,111,,30,17,194,33,31,63,263,49*74
946685752.388427$GPGLL,3957.08373,N,07511.55614,W,021031.60,A,D*7F
946685752.388610$GPGLL,3957.08373,N,07511.55614,W,021031.60,A,D*7F
946685752.388793$GPGLL,3957.08373,N,07511.55614,W,021031.60,A,D*7F
946685752.388946$GPGLL,3957.08373,N,07511.55614,W,021031.60,A,D*7F
946685752.389099$GPGLL,3957.08373,N,07511.55614,W,021031.60,A,D*7F
946685752.389343$GPGLL,3957.08373,N,07511.55614,W,021031.60,A,D*7F
946685752.389495$GPGLL,3957.08373,N,07511.55614,W,021031.60,A,D*7F
946685752.389617$GPGLL,3957.08373,N,07511.55614,W,021031.60,A,D*7F
946685752.569610$GPGSA,A,3,32,25,31,46,30,12,51,,,,,,2.40,1.21,2.08*0E
946685752.569793$GPGSA,A,3,32,25,31,46,30,12,51,,,,,,2.40,1.21,2.08*0E
946685752.569946$GPGSA,A,3,32,25,31,46,30,12,51,,,,,,2.40,1.21,2.08*0E
946685752.570098$GPGSA,A,3,32,25,31,46,30,12,51,,,,,,2.40,1.21,2.08*0E
946685752.570220$GPGSA,A,3,32,25,31,46,30,12,51,,,,,,2.40,1.21,2.08*0E
946685752.570373$GPGSA,A,3,32,25,31,46,30,12,51,,,,,,2.40,1.21,2.08*0E
946685752.570648$GPGSA,A,3,32,25,31,46,30,12,51,,,,,,2.40,1.21,2.08*0E
946685752.583831$GPGSV,4,3,16,27,28,180,26,29,01,111,,30,17,194,33,31,63,263,48*75
946685752.584045$GPGSV,4,3,16,27,28,180,26,29,01,111,,30,17,194,33,31,63,263,48*75
946685752.584197$GPGSV,4,3,16,27,28,180,26,29,01,111,,30,17,194,33,31,63,263,48*75
946685752.584350$GPGSV,4,3,16,27,28,180,26,29,01,111,,30,17,194,33,31,63,263,48*75
946685752.584625$GPGSV,4,3,16,27,28,180,26,29,01,111,,30,17,194,33,31,63,263,48*75
946685752.584777$GPGSV,4,3,16,27,28,180,26,29,01,111,,30,17,194,33,31,63,263,48*75
946685752.768951$GPVTG,,T,,M,0.044,N,0.081,K,D*2F
946685752.769134$GPRMC,021032.00,A,3957.08375,N,07511.55617,W,0.044,,141212,,,D*63
946685752.769287$GPRMC,021032.00,A,3957.08375,N,07511.55617,W,0.044,,141212,,,D*63
946685752.769439$GPRMC,021032.00,A,3957.08375,N,07511.55617,W,0.044,,141212,,,D*63
946685752.769592$GPRMC,021032.00,A,3957.08375,N,07511.55617,W,0.044,,141212,,,D*63
946685752.769836$GPRMC,021032.00,A,3957.08375,N,07511.55617,W,0.044,,141212,,,D*63
946685752.769989$GPRMC,021032.00,A,3957.08375,N,07511.55617,W,0.044,,141212,,,D*63
946685752.770141$GPRMC,021032.00,A,3957.08375,N,07511.55617,W,0.044,,141212,,,D*63
946685752.770294$GPRMC,021032.00,A,3957.08375,N,07511.55617,W,0.044,,141212,,,D*63
946685752.770446$GPRMC,021032.00,A,3957.08375,N,07511.55617,W,0.044,,141212,,,D*63
946685752.770599$GPRMC,021032.00,A,3957.08375,N,07511.55617,W,0.044,,141212,,,D*63
946685752.770843$GPRMC,021032.00,A,3957.08375,N,07511.55617,W,0.044,,141212,,,D*63
946685752.781066$GPGSV,4,1,16,01,14,286,,11,01,268,,12,21,042,32,14,61,070,*7C
946685752.781219$GPGSV,4,1,16,01,14,286,,11,01,268,,12,21,042,32,14,61,070,*7C
946685752.781402$GPGSV,4,1,16,01,14,286,,11,01,268,,12,21,042,32,14,61,070,*7C
946685752.781524$GPGSV,4,1,16,01,14,286,,11,01,268,,12,21,042,32,14,61,070,*7C
946685752.781799$GPGSV,4,1,16,01,14,286,,11,01,268,,12,21,042,32,14,61,070,*7C
946685752.781951$GPGSV,4,1,16,01,14,286,,11,01,268,,12,21,042,32,14,61,070,*7C
946685752.782104$GPGSV,4,1,16,01,14,286,,11,01,268,,12,21,042,32,14,61,070,*7C
946685752.782318$GPGSV,4,1,16,01,14,286,,11,01,268,,12,21,042,32,14,61,070,*7C
946685752.782470$GPGSV,4,1,16,01,14,286,,11,01,268,,12,21,042,32,14,61,070,*7C
946685752.782592$GPGSV,4,1,16,01,14,286,,11,01,268,,12,21,042,32,14,61,070,*7C
946685752.969177$GPVTG,,T,,M,0.024,N,0.045,K,D*21
946685752.969329$GPVTG,,T,,M,0.024,N,0.045,K,D*21
946685752.969482$GPVTG,,T,,M,0.024,N,0.045,K,D*21
946685752.969635$GPVTG,,T,,M,0.024,N,0.045,K,D*21
946685752.969818$GPVTG,,T,,M,0.024,N,0.045,K,D*21
946685752.970092$GPVTG,,T,,M,0.024,N,0.045,K,D*21
946685752.970214$GPVTG,,T,,M,0.024,N,0.045,K,D*21
946685752.970367$GPVTG,,T,,M,0.024,N,0.045,K,D*21
946685752.970489$GPVTG,,T,,M,0.024,N,0.045,K,D*21
946685752.982238$GPGSV,4,1,16,01,14,286,,11,01,268,,12,21,042,31,14,61,070,*7F
946685752.982421$GPGSV,4,1,16,01,14,286,,11,01,268,,12,21,042,31,14,61,070,*7F
946685752.982574$GPGSV,4,1,16,01,14,286,,11,01,268,,12,21,042,31,14,61,070,*7F
946685752.982727$GPGSV,4,1,16,01,14,286,,11,01,268,,12,21,042,31,14,61,070,*7F
946685752.982879$GPGSV,4,1,16,01,14,286,,11,01,268,,12,21,042,31,14,61,070,*7F
946685752.983123$GPGSV,4,1,16,01,14,286,,11,01,268,,12,21,042,31,14,61,070,*7F
946685752.983276$GPGSV,4,1,16,01,14,286,,11,01,268,,12,21,042,31,14,61,070,*7F
946685752.983428$GPGSV,4,1,16,01,14,286,,11,01,268,,12,21,042,31,14,61,070,*7F
946685752.983581$GPGSV,4,1,16,01,14,286,,11,01,268,,12,21,042,31,14,61,070,*7F
946685752.983734$GPGSV,4,1,16,01,14,286,,11,01,268,,12,21,042,31,14,61,070,*7F
946685752.986236$GPGSV,4,3,16,27,28,180,26,29,01,111,,30,17,194,33,31,63,263,49*74
946685752.986419$GPGSV,4,3,16,27,28,180,26,29,01,111,,30,17,194,33,31,63,263,49*74
946685752.986572$GPGSV,4,3,16,27,28,180,26,29,01,111,,30,17,194,33,31,63,263,49*74
946685752.986724$GPGSV,4,3,16,27,28,180,26,29,01,111,,30,17,194,33,31,63,263,49*74
946685752.986877$GPGSV,4,3,16,27,28,180,26,29,01,111,,30,17,194,33,31,63,263,49*74
946685752.987152$GPGSV,4,3,16,27,28,180,26,29,01,111,,30,17,194,33,31,63,263,49*74
946685752.987304$GPGSV,4,3,16,27,28,180,26,29,01,111,,30,17,194,33,31,63,263,49*74
946685752.987457$GPGSV,4,3,16,27,28,180,26,29,01,111,,30,17,194,33,31,63,263,49*74
946685752.987701$GPGSV,4,3,16,27,28,180,26,29,01,111,,30,17,194,33,31,63,263,49*74
946685752.987854$GPGSV,4,3,16,27,28,180,26,29,01,111,,30,17,194,33,31,63,263,49*74
946685753.159088$GPVTG,,T,,M,0.026,N,0.049,K,D*2F
946685753.159362$GPRMC,021032.40,A,3957.08377,N,07511.55620,W,0.026,,141212,,,D*65
946685753.159515$GPRMC,021032.40,A,3957.08377,N,07511.55620,W,0.026,,141212,,,D*65
946685753.159667$GPRMC,021032.40,A,3957.08377,N,07511.55620,W,0.026,,141212,,,D*65
946685753.159820$GPRMC,021032.40,A,3957.08377,N,07511.55620,W,0.026,,141212,,,D*65
946685753.159973$GPRMC,021032.40,A,3957.08377,N,07511.55620,W,0.026,,141212,,,D*65
946685753.160217$GPRMC,021032.40,A,3957.08377,N,07511.55620,W,0.026,,141212,,,D*65
946685753.160369$GPRMC,021032.40,A,3957.08377,N,07511.55620,W,0.026,,141212,,,D*65
946685753.160522$GPRMC,021032.40,A,3957.08377,N,07511.55620,W,0.026,,141212,,,D*65
946685753.160675$GPRMC,021032.40,A,3957.08377,N,07511.55620,W,0.026,,141212,,,D*65
946685753.160827$GPRMC,021032.40,A,3957.08377,N,07511.55620,W,0.026,,141212,,,D*65
946685753.160949$GPRMC,021032.40,A,3957.08377,N,07511.55620,W,0.026,,141212,,,D*65
946685753.185516$GPGLL,3957.08377,N,07511.55620,W,021032.40,A,D*7D
946685753.185699$GPGLL,3957.08377,N,07511.55620,W,021032.40,A,D*7D
946685753.185852$GPGLL,3957.08377,N,07511.55620,W,021032.40,A,D*7D
946685753.185974$GPGLL,3957.08377,N,07511.55620,W,021032.40,A,D*7D
946685753.186218$GPGLL,3957.08377,N,07511.55620,W,021032.40,A,D*7D
946685753.186401$GPGLL,3957.08377,N,07511.55620,W,021032.40,A,D*7D
946685753.186523$GPGLL,3957.08377,N,07511.55620,W,021032.40,A,D*7D
946685753.583892$GPGLL,3957.08379,N,07511.55622,W,021032.80,A,D*7D
946685753.584075$GPGLL,3957.08379,N,07511.55622,W,021032.80,A,D*7D
946685753.584228$GPGLL,3957.08379,N,07511.55622,W,021032.80,A,D*7D
946685753.584381$GPGLL,3957.08379,N,07511.55622,W,021032.80,A,D*7D
946685753.584503$GPGLL,3957.08379,N,07511.55622,W,021032.80,A,D*7D
946685753.584777$GPGLL,3957.08379,N,07511.55622,W,021032.80,A,D*7D
946685753.584899$GPGLL,3957.08379,N,07511.55622,W,021032.80,A,D*7D
946685753.585052$GPGLL,3957.08379,N,07511.55622,W,021032.80,A,D*7D
946685753.585205$GPGLL,3957.08379,N,07511.55622,W,021032.80,A,D*7D
946685753.585327$GPGLL,3957.08379,N,07511.55622,W,021032.80,A,D*7D
946685753.585479$GPGLL,3957.08379,N,07511.55622,W,021032.80,A,D*7D
946685753.585723$GPGLL,3957.08379,N,07511.55622,W,021032.80,A,D*7D
946685753.585876$GPGLL,3957.08379,N,07511.55622,W,021032.80,A,D*7D
946685753.585998$GPGLL,3957.08379,N,07511.55622,W,021032.80,A,D*7D
946685753.586151$GPGLL,3957.08379,N,07511.55622,W,021032.80,A,D*7D
946685753.786010$GPGLL,3957.08380,N,07511.55624,W,021033.00,A,D*74
946685753.786193$GPGLL,3957.08380,N,07511.55624,W,021033.00,A,D*74
946685753.786346$GPGLL,3957.08380,N,07511.55624,W,021033.00,A,D*74
946685753.786499$GPGLL,3957.08380,N,07511.55624,W,021033.00,A,D*74
946685753.786621$GPGLL,3957.08380,N,07511.55624,W,021033.00,A,D*74
946685753.786773$GPGLL,3957.08380,N,07511.55624,W,021033.00,A,D*74
946685753.787017$GPGLL,3957.08380,N,07511.55624,W,021033.00,A,D*74
946685753.787170$GPGLL,3957.08380,N,07511.55624,W,021033.00,A,D*74
946685753.787322$GPGLL,3957.08380,N,07511.55624,W,021033.00,A,D*74
946685753.958404$GPRMC,021033.20,A,3957.08381,N,07511.55625,W,0.017,,141212,,,D*6C
946685753.958587$GPRMC,021033.20,A,3957.08381,N,07511.55625,W,0.017,,141212,,,D*6C
946685753.958770$GPRMC,021033.20,A,3957.08381,N,07511.55625,W,0.017,,141212,,,D*6C
946685753.958923$GPRMC,021033.20,A,3957.08381,N,07511.55625,W,0.017,,141212,,,D*6C
946685753.959167$GPRMC,021033.20,A,3957.08381,N,07511.55625,W,0.017,,141212,,,D*6C
946685753.959320$GPRMC,021033.20,A,3957.08381,N,07511.55625,W,0.017,,141212,,,D*6C
946685753.959472$GPRMC,021033.20,A,3957.08381,N,07511.55625,W,0.017,,141212,,,D*6C
946685753.959625$GPRMC,021033.20,A,3957.08381,N,07511.55625,W,0.017,,141212,,,D*6C
946685753.959777$GPRMC,021033.20,A,3957.08381,N,07511.55625,W,0.017,,141212,,,D*6C
946685754.184661$GPGSV,4,4,16,32,38,308,42,33,14,110,,46,40,213,40,51,33,224,34*79
946685754.184967$GPGSV,4,4,16,32,38,308,42,33,14,110,,46,40,213,40,51,33,224,34*79
946685754.185119$GPGSV,4,4,16,32,38,308,42,33,14,110,,46,40,213,40,51,33,224,34*79
946685754.185272$GPGSV,4,4,16,32,38,308,42,33,14,110,,46,40,213,40,51,33,224,34*79
946685754.185577$GPGSV,4,4,16,32,38,308,42,33,14,110,,46,40,213,40,51,33,224,34*79
946685754.185729$GPGSV,4,4,16,32,38,308,42,33,14,110,,46,40,213,40,51,33,224,34*79
946685754.185882$GPGSV,4,4,16,32,38,308,42,33,14,110,,46,40,213,40,51,33,224,34*79
946685754.385528$GPGLL,3957.08383,N,07511.55628,W,021033.60,A,D*7D
946685754.385803$GPGLL,3957.08383,N,07511.55628,W,021033.60,A,D*7D
946685754.385955$GPGLL,3957.08383,N,07511.55628,W,021033.60,A,D*7D
946685754.386077$GPGLL,3957.08383,N,07511.55628,W,021033.60,A,D*7D
946685754.386230$GPGLL,3957.08383,N,07511.55628,W,021033.60,A,D*7D
946685754.386383$GPGLL,3957.08383,N,07511.55628,W,021033.60,A,D*7D
946685754.386505$GPGLL,3957.08383,N,07511.55628,W,021033.60,A,D*7D
946685754.386749$GPGLL,3957.08383,N,07511.55628,W,021033.60,A,D*7D
946685754.386901$GPGLL,3957.08383,N,07511.55628,W,021033.60,A,D*7D
946685754.387023$GPGLL,3957.08383,N,07511.55628,W,021033.60,A,D*7D
946685754.387176$GPGLL,3957.08383,N,07511.55628,W,021033.60,A,D*7D
946685754.387329$GPGLL,3957.08383,N,07511.55628,W,021033.60,A,D*7D
946685754.387451$GPGLL,3957.08383,N,07511.55628,W,021033.60,A,D*7D
946685754.757751$GPRMC,021034.00,A,3957.08385,N,07511.55631,W,0.034,,141212,,,D*69
946685754.757934$GPRMC,021034.00,A,3957.08385,N,07511.55631,W,0.034,,141212,,,D*69
946685754.758178$GPRMC,021034.00,A,3957.08385,N,07511.55631,W,0.034,,141212,,,D*69
946685754.758361$GPRMC,021034.00,A,3957.08385,N,07511.55631,W,0.034,,141212,,,D*69
946685754.758483$GPRMC,021034.00,A,3957.08385,N,07511.55631,W,0.034,,141212,,,D*69
946685754.758636$GPRMC,021034.00,A,3957.08385,N,07511.55631,W,0.034,,141212,,,D*69
946685754.758850$GPRMC,021034.00,A,3957.08385,N,07511.55631,W,0.034,,141212,,,D*69
946685754.759124$GPRMC,021034.00,A,3957.08385,N,07511.55631,W,0.034,,141212,,,D*69
946685754.759277$GPRMC,021034.00,A,3957.08385,N,07511.55631,W,0.034,,141212,,,D*69
946685754.984558$GPGLL,3957.08387,N,07511.55634,W,021034.20,A,D*77
946685754.984710$GPGLL,3957.08387,N,07511.55634,W,021034.20,A,D*77
946685754.984863$GPGLL,3957.08387,N,07511.55634,W,021034.20,A,D*77
946685754.985015$GPGLL,3957.08387,N,07511.55634,W,021034.20,A,D*77
946685754.985137$GPGLL,3957.08387,N,07511.55634,W,021034.20,A,D*77
946685754.985443$GPGLL,3957.08387,N,07511.55634,W,021034.20,A,D*77
946685754.985595$GPGLL,3957.08387,N,07511.55634,W,021034.20,A,D*77
946685754.985748$GPGLL,3957.08387,N,07511.55634,W,021034.20,A,D*77
946685754.985870$GPGLL,3957.08387,N,07511.55634,W,021034.20,A,D*77
946685754.986022$GPGLL,3957.08387,N,07511.55634,W,021034.20,A,D*77
946685754.986145$GPGLL,3957.08387,N,07511.55634,W,021034.20,A,D*77
946685754.986389$GPGLL,3957.08387,N,07511.55634,W,021034.20,A,D*77
946685755.183837$GPGLL,3957.08388,N,07511.55636,W,021034.40,A,D*7C
946685755.184051$GPGLL,3957.08388,N,07511.55636,W,021034.40,A,D*7C
946685755.184204$GPGLL,3957.08388,N,07511.55636,W,021034.40,A,D*7C
946685755.184326$GPGLL,3957.08388,N,07511.55636,W,021034.40,A,D*7C
946685755.184600$GPGLL,3957.08388,N,07511.55636,W,021034.40,A,D*7C
946685755.184753$GPGLL,3957.08388,N,07511.55636,W,021034.40,A,D*7C
946685755.184875$GPGLL,3957.08388,N,07511.55636,W,021034.40,A,D*7C
946685755.185028$GPGLL,3957.08388,N,07511.55636,W,021034.40,A,D*7C
946685755.185180$GPGLL,3957.08388,N,07511.55636,W,021034.40,A,D*7C
946685755.185302$GPGLL,3957.08388,N,07511.55636,W,021034.40,A,D*7C
946685755.185546$GPGLL,3957.08388,N,07511.55636,W,021034.40,A,D*7C
946685755.185699$GPGLL,3957.08388,N,07511.55636,W,021034.40,A,D*7C
946685755.185821$GPGLL,3957.08388,N,07511.55636,W,021034.40,A,D*7C
946685755.185974$GPGLL,3957.08388,N,07511.55636,W,021034.40,A,D*7C
946685755.372497$GPGSV,4,1,16,01,14,286,,11,01,268,,12,21,042,30,14,61,070,*7E
946685755.372772$GPGSV,4,1,16,01,14,286,,11,01,268,,12,21,042,30,14,61,070,*7E
946685755.372955$GPGSV,4,1,16,01,14,286,,11,01,268,,12,21,042,30,14,61,070,*7E
946685755.373229$GPGSV,4,1,16,01,14,286,,11,01,268,,12,21,042,30,14,61,070,*7E
946685755.373382$GPGSV,4,1,16,01,14,286,,11,01,268,,12,21,042,30,14,61,070,*7E
946685755.373535$GPGSV,4,1,16,01,14,286,,11,01,268,,12,21,042,30,14,61,070,*7E
946685755.373779$GPGSV,4,1,16,01,14,286,,11,01,268,,12,21,042,30,14,61,070,*7E
946685755.373931$GPGSV,4,1,16,01,14,286,,11,01,268,,12,21,042,30,14,61,070,*7E
946685755.374084$GPGSV,4,1,16,01,14,286,,11,01,268,,12,21,042,30,14,61,070,*7E
946685755.381011$GPGSV,4,3,16,27,28,180,27,29,01,111,,30,17,194,34,31,63,263,49*72
946685755.381195$GPGSV,4,3,16,27,28,180,27,29,01,111,,30,17,194,34,31,63,263,49*72
946685755.381347$GPGSV,4,3,16,27,28,180,27,29,01,111,,30,17,194,34,31,63,263,49*72
946685755.381500$GPGSV,4,3,16,27,28,180,27,29,01,111,,30,17,194,34,31,63,263,49*72
946685755.381652$GPGSV,4,3,16,27,28,180,27,29,01,111,,30,17,194,34,31,63,263,49*72
946685755.381896$GPGSV,4,3,16,27,28,180,27,29,01,111,,30,17,194,34,31,63,263,49*72
946685755.382049$GPGSV,4,3,16,27,28,180,27,29,01,111,,30,17,194,34,31,63,263,49*72
946685755.382202$GPGSV,4,3,16,27,28,180,27,29,01,111,,30,17,194,34,31,63,263,49*72
946685755.382354$GPGSV,4,3,16,27,28,180,27,29,01,111,,30,17,194,34,31,63,263,49*72
946685755.382507$GPGSV,4,3,16,27,28,180,27,29,01,111,,30,17,194,34,31,63,263,49*72
946685755.786468$GPGSV,4,4,16,32,38,308,42,33,14,110,,46,40,213,40,51,33,224,34*79
946685755.786651$GPGSV,4,4,16,32,38,308,42,33,14,110,,46,40,213,40,51,33,224,34*79
946685755.786804$GPGSV,4,4,16,32,38,308,42,33,14,110,,46,40,213,40,51,33,224,34*79
946685755.786956$GPGSV,4,4,16,32,38,308,42,33,14,110,,46,40,213,40,51,33,224,34*79
946685755.787109$GPGSV,4,4,16,32,38,308,42,33,14,110,,46,40,213,40,51,33,224,34*79
946685755.787353$GPGSV,4,4,16,32,38,308,42,33,14,110,,46,40,213,40,51,33,224,34*79
946685755.787506$GPGSV,4,4,16,32,38,308,42,33,14,110,,46,40,213,40,51,33,224,34*79
946685755.787658$GPGSV,4,4,16,32,38,308,42,33,14,110,,46,40,213,40,51,33,224,34*79
946685755.787811$GPGSV,4,4,16,32,38,308,42,33,14,110,,46,40,213,40,51,33,224,34*79
946685755.787963$GPGSV,4,4,16,32,38,308,42,33,14,110,,46,40,213,40,51,33,224,34*79
946685755.958343$GPRMC,021035.20,A,3957.08393,N,07511.55644,W,0.030,,141212,,,D*6B
946685755.958618$GPRMC,021035.20,A,3957.08393,N,07511.55644,W,0.030,,141212,,,D*6B
946685755.958770$GPRMC,021035.20,A,3957.08393,N,07511.55644,W,0.030,,141212,,,D*6B
946685755.958923$GPRMC,021035.20,A,3957.08393,N,07511.55644,W,0.030,,141212,,,D*6B
946685755.959075$GPRMC,021035.20,A,3957.08393,N,07511.55644,W,0.030,,141212,,,D*6B
946685755.959228$GPRMC,021035.20,A,3957.08393,N,07511.55644,W,0.030,,141212,,,D*6B
946685755.959472$GPRMC,021035.20,A,3957.08393,N,07511.55644,W,0.030,,141212,,,D*6B
946685755.959625$GPRMC,021035.20,A,3957.08393,N,07511.55644,W,0.030,,141212,,,D*6B
946685755.959777$GPRMC,021035.20,A,3957.08393,N,07511.55644,W,0.030,,141212,,,D*6B
946685755.959930$GPRMC,021035.20,A,3957.08393,N,07511.55644,W,0.030,,141212,,,D*6B
946685755.983276$GPGSV,4,4,16,32,38,308,42,33,14,110,,46,40,213,40,51,33,224,34*79
946685755.983551$GPGSV,4,4,16,32,38,308,42,33,14,110,,46,40,213,40,51,33,224,34*79
946685755.983734$GPGSV,4,4,16,32,38,308,42,33,14,110,,46,40,213,40,51,33,224,34*79
946685755.983886$GPGSV,4,4,16,32,38,308,42,33,14,110,,46,40,213,40,51,33,224,34*79
946685755.984039$GPGSV,4,4,16,32,38,308,42,33,14,110,,46,40,213,40,51,33,224,34*79
946685755.984161$GPGSV,4,4,16,32,38,308,42,33,14,110,,46,40,213,40,51,33,224,34*79
946685755.984313$GPGSV,4,4,16,32,38,308,42,33,14,110,,46,40,213,40,51,33,224,34*79
946685755.984558$GPGSV,4,4,16,32,38,308,42,33,14,110,,46,40,213,40,51,33,224,34*79
946685755.984741$GPGSV,4,4,16,32,38,308,42,33,14,110,,46,40,213,40,51,33,224,34*79
946685755.984893$GPGSV,4,4,16,32,38,308,42,33,14,110,,46,40,213,40,51,33,224,34*79
946685755.985046$GPGSV,4,4,16,32,38,308,42,33,14,110,,46,40,213,40,51,33,224,34*79
946685756.158355$GPRMC,021035.40,A,3957.08395,N,07511.55647,W,0.022,,141212,,,D*6B
946685756.158660$GPRMC,021035.40,A,3957.08395,N,07511.55647,W,0.022,,141212,,,D*6B
946685756.158843$GPRMC,021035.40,A,3957.08395,N,07511.55647,W,0.022,,141212,,,D*6B
946685756.159179$GPRMC,021035.40,A,3957.08395,N,07511.55647,W,0.022,,141212,,,D*6B
946685756.159332$GPRMC,021035.40,A,3957.08395,N,07511.55647,W,0.022,,141212,,,D*6B
946685756.159484$GPRMC,021035.40,A,3957.08395,N,07511.55647,W,0.022,,141212,,,D*6B
946685756.159729$GPRMC,021035.40,A,3957.08395,N,07511.55647,W,0.022,,141212,,,D*6B
946685756.159912$GPRMC,021035.40,A,3957.08395,N,07511.55647,W,0.022,,141212,,,D*6B
946685756.160064$GPRMC,021035.40,A,3957.08395,N,07511.55647,W,0.022,,141212,,,D*6B
946685756.160217$GPRMC,021035.40,A,3957.08395,N,07511.55647,W,0.022,,141212,,,D*6B
946685756.160369$GPRMC,021035.40,A,3957.08395,N,07511.55647,W,0.022,,141212,,,D*6B
946685756.184844$GPGLL,3957.08395,N,07511.55647,W,021035.40,A,D*77
946685756.185028$GPGLL,3957.08395,N,07511.55647,W,021035.40,A,D*77
946685756.185180$GPGLL,3957.08395,N,07511.55647,W,021035.40,A,D*77
946685756.185333$GPGLL,3957.08395,N,07511.55647,W,021035.40,A,D*77
946685756.185455$GPGLL,3957.08395,N,07511.55647,W,021035.40,A,D*77
946685756.185699$GPGLL,3957.08395,N,07511.55647,W,021035.40,A,D*77
946685756.185882$GPGLL,3957.08395,N,07511.55647,W,021035.40,A,D*77
946685756.557830$GPRMC,021035.80,A,3957.08398,N,07511.55651,W,0.009,,141212,,,D*64
946685756.558044$GPRMC,021035.80,A,3957.08398,N,07511.55651,W,0.009,,141212,,,D*64
946685756.558288$GPRMC,021035.80,A,3957.08398,N,07511.55651,W,0.009,,141212,,,D*64
946685756.558441$GPRMC,021035.80,A,3957.08398,N,07511.55651,W,0.009,,141212,,,D*64
946685756.558593$GPRMC,021035.80,A,3957.08398,N,07511.55651,W,0.009,,141212,,,D*64
946685756.558746$GPRMC,021035.80,A,3957.08398,N,07511.55651,W,0.009,,141212,,,D*64
946685756.558898$GPRMC,021035.80,A,3957.08398,N,07511.55651,W,0.009,,141212,,,D*64
946685756.559143$GPRMC,021035.80,A,3957.08398,N,07511.55651,W,0.009,,141212,,,D*64
946685756.559295$GPRMC,021035.80,A,3957.08398,N,07511.55651,W,0.009,,141212,,,D*64
946685756.559448$GPRMC,021035.80,A,3957.08398,N,07511.55651,W,0.009,,141212,,,D*64
946685756.769470$GPGSA,A,3,32,25,31,46,30,12,51,,,,,,2.40,1.21,2.08*0E
946685756.769653$GPGSA,A,3,32,25,31,46,30,12,51,,,,,,2.40,1.21,2.08*0E
946685756.769805$GPGSA,A,3,32,25,31,46,30,12,51,,,,,,2.40,1.21,2.08*0E
946685756.769958$GPGSA,A,3,32,25,31,46,30,12,51,,,,,,2.40,1.21,2.08*0E
946685756.770111$GPGSA,A,3,32,25,31,46,30,12,51,,,,,,2.40,1.21,2.08*0E
946685756.770233$GPGSA,A,3,32,25,31,46,30,12,51,,,,,,2.40,1.21,2.08*0E
946685756.770507$GPGSA,A,3,32,25,31,46,30,12,51,,,,,,2.40,1.21,2.08*0E
946685757.161071$GPGGA,021036.40,3957.08404,N,07511.55658,W,2,07,1.21,8.3,M,-34.5,M,,0000*67
946685757.161285$GPGGA,021036.40,3957.08404,N,07511.55658,W,2,07,1.21,8.3,M,-34.5,M,,0000*67
946685757.161468$GPGGA,021036.40,3957.08404,N,07511.55658,W,2,07,1.21,8.3,M,-34.5,M,,0000*67
946685757.161621$GPGGA,021036.40,3957.08404,N,07511.55658,W,2,07,1.21,8.3,M,-34.5,M,,0000*67
946685757.161895$GPGGA,021036.40,3957.08404,N,07511.55658,W,2,07,1.21,8.3,M,-34.5,M,,0000*67
946685757.162048$GPGGA,021036.40,3957.08404,N,07511.55658,W,2,07,1.21,8.3,M,-34.5,M,,0000*67
946685757.162200$GPGGA,021036.40,3957.08404,N,07511.55658,W,2,07,1.21,8.3,M,-34.5,M,,0000*67
946685757.361175$GPGGA,021036.60,3957.08405,N,07511.55662,W,2,07,1.21,8.3,M,-34.5,M,,0000*6D
946685757.361358$GPGGA,021036.60,3957.08405,N,07511.55662,W,2,07,1.21,8.3,M,-34.5,M,,0000*6D
946685757.361541$GPGGA,021036.60,3957.08405,N,07511.55662,W,2,07,1.21,8.3,M,-34.5,M,,0000*6D
946685757.361694$GPGGA,021036.60,3957.08405,N,07511.55662,W,2,07,1.21,8.3,M,-34.5,M,,0000*6D
946685757.361846$GPGGA,021036.60,3957.08405,N,07511.55662,W,2,07,1.21,8.3,M,-34.5,M,,0000*6D
946685757.361999$GPGGA,021036.60,3957.08405,N,07511.55662,W,2,07,1.21,8.3,M,-34.5,M,,0000*6D
946685757.362274$GPGGA,021036.60,3957.08405,N,07511.55662,W,2,07,1.21,8.3,M,-34.5,M,,0000*6D
946685757.362426$GPGGA,021036.60,3957.08405,N,07511.55662,W,2,07,1.21,8.3,M,-34.5,M,,0000*6D
946685757.585998$GPGLL,3957.08407,N,07511.55663,W,021036.80,A,D*72
946685757.586181$GPGLL,3957.08407,N,07511.55663,W,021036.80,A,D*72
946685757.586456$GPGLL,3957.08407,N,07511.55663,W,021036.80,A,D*72
946685757.586608$GPGLL,3957.08407,N,07511.55663,W,021036.80,A,D*72
946685757.586975$GPGLL,3957.08407,N,07511.55663,W,021036.80,A,D*72
946685757.587127$GPGLL,3957.08407,N,07511.55663,W,021036.80,A,D*72
946685757.587402$GPGLL,3957.08407,N,07511.55663,W,021036.80,A,D*72
946685757.587554$GPGLL,3957.08407,N,07511.55663,W,021036.80,A,D*72
946685757.587707$GPGLL,3957.08407,N,07511.55663,W,021036.80,A,D*72
946685757.785491$GPGLL,3957.08409,N,07511.55666,W,021037.00,A,D*70
946685757.785675$GPGLL,3957.08409,N,07511.55666,W,021037.00,A,D*70
946685757.785827$GPGLL,3957.08409,N,07511.55666,W,021037.00,A,D*70
946685757.785980$GPGLL,3957.08409,N,07511.55666,W,021037.00,A,D*70
946685757.786102$GPGLL,3957.08409,N,07511.55666,W,021037.00,A,D*70
946685757.786254$GPGLL,3957.08409,N,07511.55666,W,021037.00,A,D*70
946685757.786376$GPGLL,3957.08409,N,07511.55666,W,021037.00,A,D*70
946685757.786621$GPGLL,3957.08409,N,07511.55666,W,021037.00,A,D*70
946685757.786773$GPGLL,3957.08409,N,07511.55666,W,021037.00,A,D*70
946685757.786926$GPGLL,3957.08409,N,07511.55666,W,021037.00,A,D*70
946685757.787048$GPGLL,3957.08409,N,07511.55666,W,021037.00,A,D*70
946685757.787200$GPGLL,3957.08409,N,07511.55666,W,021037.00,A,D*70
946685757.787353$GPGLL,3957.08409,N,07511.55666,W,021037.00,A,D*70
946685757.960388$GPGGA,021037.20,3957.08411,N,07511.55669,W,2,07,1.21,8.1,M,-34.5,M,,0000*64
946685757.960571$GPGGA,021037.20,3957.08411,N,07511.55669,W,2,07,1.21,8.1,M,-34.5,M,,0000*64
946685757.960845$GPGGA,021037.20,3957.08411,N,07511.55669,W,2,07,1.21,8.1,M,-34.5,M,,0000*64
946685757.960998$GPGGA,021037.20,3957.08411,N,07511.55669,W,2,07,1.21,8.1,M,-34.5,M,,0000*64
946685757.961151$GPGGA,021037.20,3957.08411,N,07511.55669,W,2,07,1.21,8.1,M,-34.5,M,,0000*64
946685757.961334$GPGGA,021037.20,3957.08411,N,07511.55669,W,2,07,1.21,8.1,M,-34.5,M,,0000*64
946685757.961486$GPGGA,021037.20,3957.08411,N,07511.55669,W,2,07,1.21,8.1,M,-34.5,M,,0000*64
946685757.975982$GPGSV,4,3,16,27,28,180,28,29,01,111,,30,17,194,36,31,63,263,50*77
946685757.976165$GPGSV,4,3,16,27,28,180,28,29,01,111,,30,17,194,36,31,63,263,50*77
946685757.976318$GPGSV,4,3,16,27,28,180,28,29,01,111,,30,17,194,36,31,63,263,50*77
946685757.976470$GPGSV,4,3,16,27,28,180,28,29,01,111,,30,17,194,36,31,63,263,50*77
946685757.976623$GPGSV,4,3,16,27,28,180,28,29,01,111,,30,17,194,36,31,63,263,50*77
946685757.976898$GPGSV,4,3,16,27,28,180,28,29,01,111,,30,17,194,36,31,63,263,50*77
946685757.977050$GPGSV,4,3,16,27,28,180,28,29,01,111,,30,17,194,36,31,63,263,50*77
946685757.977203$GPGSV,4,3,16,27,28,180,28,29,01,111,,30,17,194,36,31,63,263,50*77
946685758.358032$GPRMC,021037.60,A,3957.08414,N,07511.55675,W,0.080,,141212,,,D*6C
946685758.358306$GPRMC,021037.60,A,3957.08414,N,07511.55675,W,0.080,,141212,,,D*6C
946685758.358489$GPRMC,021037.60,A,3957.08414,N,07511.55675,W,0.080,,141212,,,D*6C
946685758.358642$GPRMC,021037.60,A,3957.08414,N,07511.55675,W,0.080,,141212,,,D*6C
946685758.358764$GPRMC,021037.60,A,3957.08414,N,07511.55675,W,0.080,,141212,,,D*6C
946685758.358917$GPRMC,021037.60,A,3957.08414,N,07511.55675,W,0.080,,141212,,,D*6C
946685758.359191$GPRMC,021037.60,A,3957.08414,N,07511.55675,W,0.080,,141212,,,D*6C
946685758.359344$GPRMC,021037.60,A,3957.08414,N,07511.55675,W,0.080,,141212,,,D*6C
946685758.359497$GPRMC,021037.60,A,3957.08414,N,07511.55675,W,0.080,,141212,,,D*6C
946685758.359649$GPRMC,021037.60,A,3957.08414,N,07511.55675,W,0.080,,141212,,,D*6C
946685758.582733$GPGSV,4,3,16,27,28,180,28,29,01,111,,30,17,194,36,31,63,263,50*77
946685758.582916$GPGSV,4,3,16,27,28,180,28,29,01,111,,30,17,194,36,31,63,263,50*77
946685758.583068$GPGSV,4,3,16,27,28,180,28,29,01,111,,30,17,194,36,31,63,263,50*77
946685758.583221$GPGSV,4,3,16,27,28,180,28,29,01,111,,30,17,194,36,31,63,263,50*77
946685758.583465$GPGSV,4,3,16,27,28,180,28,29,01,111,,30,17,194,36,31,63,263,50*77
946685758.583648$GPGSV,4,3,16,27,28,180,28,29,01,111,,30,17,194,36,31,63,263,50*77
946685758.583801$GPGSV,4,3,16,27,28,180,28,29,01,111,,30,17,194,36,31,63,263,50*77
946685758.583923$GPGSV,4,3,16,27,28,180,28,29,01,111,,30,17,194,36,31,63,263,50*77
946685758.584075$GPGSV,4,3,16,27,28,180,28,29,01,111,,30,17,194,36,31,63,263,50*77
946685758.769805$GPGGA,021038.00,3957.08417,N,07511.55678,W,2,07,1.21,7.9,M,-34.5,M,,0000*68
946685758.769989$GPGGA,021038.00,3957.08417,N,07511.55678,W,2,07,1.21,7.9,M,-34.5,M,,0000*68
946685758.770141$GPGGA,021038.00,3957.08417,N,07511.55678,W,2,07,1.21,7.9,M,-34.5,M,,0000*68
946685758.770294$GPGGA,021038.00,3957.08417,N,07511.55678,W,2,07,1.21,7.9,M,-34.5,M,,0000*68
946685758.770446$GPGGA,021038.00,3957.08417,N,07511.55678,W,2,07,1.21,7.9,M,-34.5,M,,0000*68
946685758.770721$GPGGA,021038.00,3957.08417,N,07511.55678,W,2,07,1.21,7.9,M,-34.5,M,,0000*68
946685758.770874$GPGGA,021038.00,3957.08417,N,07511.55678,W,2,07,1.21,7.9,M,-34.5,M,,0000*68
946685758.771026$GPGGA,021038.00,3957.08417,N,07511.55678,W,2,07,1.21,7.9,M,-34.5,M,,0000*68
946685758.771179$GPGGA,021038.00,3957.08417,N,07511.55678,W,2,07,1.21,7.9,M,-34.5,M,,0000*68
946685758.785644$GPGSV,4,3,16,27,28,180,28,29,01,111,,30,17,194,36,31,63,263,50*77
946685758.785827$GPGSV,4,3,16,27,28,180,28,29,01,111,,30,17,194,36,31,63,263,50*77
946685758.785980$GPGSV,4,3,16,27,28,180,28,29,01,111,,30,17,194,36,31,63,263,50*77
946685758.786132$GPGSV,4,3,16,27,28,180,28,29,01,111,,30,17,194,36,31,63,263,50*77
946685758.786285$GPGSV,4,3,16,27,28,180,28,29,01,111,,30,17,194,36,31,63,263,50*77
946685758.786437$GPGSV,4,3,16,27,28,180,28,29,01,111,,30,17,194,36,31,63,263,50*77
946685758.786682$GPGSV,4,3,16,27,28,180,28,29,01,111,,30,17,194,36,31,63,263,50*77
946685758.786834$GPGSV,4,3,16,27,28,180,28,29,01,111,,30,17,194,36,31,63,263,50*77
946685759.163421$GPGSA,A,3,32,25,31,46,30,12,51,,,,,,2.40,1.21,2.08*0E
946685759.163604$GPGSA,A,3,32,25,31,46,30,12,51,,,,,,2.40,1.21,2.08*0E
946685759.163757$GPGSA,A,3,32,25,31,46,30,12,51,,,,,,2.40,1.21,2.08*0E
946685759.163909$GPGSA,A,3,32,25,31,46,30,12,51,,,,,,2.40,1.21,2.08*0E
946685759.164154$GPGSA,A,3,32,25,31,46,30,12,51,,,,,,2.40,1.21,2.08*0E
946685759.164306$GPGSA,A,3,32,25,31,46,30,12,51,,,,,,2.40,1.21,2.08*0E
946685759.164459$GPGSA,A,3,32,25,31,46,30,12,51,,,,,,2.40,1.21,2.08*0E
946685759.164611$GPGSA,A,3,32,25,31,46,30,12,51,,,,,,2.40,1.21,2.08*0E
946685759.185333$GPGLL,3957.08421,N,07511.55684,W,021038.40,A,D*7D
946685759.363555$GPGSA,A,3,32,25,31,46,30,12,51,,,,,,2.40,1.21,2.08*0E
946685759.363739$GPGSA,A,3,32,25,31,46,30,12,51,,,,,,2.40,1.21,2.08*0E
946685759.363861$GPGSA,A,3,32,25,31,46,30,12,51,,,,,,2.40,1.21,2.08*0E
946685759.364013$GPGSA,A,3,32,25,31,46,30,12,51,,,,,,2.40,1.21,2.08*0E
946685759.364166$GPGSA,A,3,32,25,31,46,30,12,51,,,,,,2.40,1.21,2.08*0E
946685759.364410$GPGSA,A,3,32,25,31,46,30,12,51,,,,,,2.40,1.21,2.08*0E
